node_ID,node_label,latitude,longitude,country_name,country_IS03
1,Aleksince,48.36371499999984,17.94278849999978,Slovakia,SK
2,Andac,48.383973499999854,17.969689499999788,Slovakia,SK
3,Bahon,48.30546449999986,17.45009749999977,Slovakia,SK
4,Banov,48.04564349999984,18.167499499999792,Slovakia,SK
5,Banovce nad Bebravou,48.72037299999985,18.25122849999977,Slovakia,SK
6,Banovce nad Ondavou,48.679061999999846,21.83459449999978,Slovakia,SK
7,Banska Bela,48.49332499999986,18.95499849999979,Slovakia,SK
8,Banska Bela,48.47323449999985,18.947877499999777,Slovakia,SK
9,Banska Bystrica,48.73480199999983,19.163411999999795,Slovakia,SK
10,Banska Bystrica mesto,48.731460999999854,19.14573649999977,Slovakia,SK
11,Banska Stiavnicka,48.444074999999856,18.915362499999787,Slovakia,SK
12,Bansky Studenec,48.454946999999834,18.93687349999979,Slovakia,SK
13,Bardejov,49.29668699999985,21.283117999999774,Slovakia,SK
14,Bartosova Lehotka,48.63796549999984,18.91175549999977,Slovakia,SK
15,Bartosovce,49.19725999999986,21.27790749999977,Slovakia,SK
16,Belina,48.242170499999844,19.84135349999977,Slovakia,SK
17,Belusa,49.056527499999845,18.31301549999978,Slovakia,SK
18,Benus,48.82884749999985,19.75979749999979,Slovakia,SK
19,Bernolakovo,48.19790399999985,17.306083499999772,Slovakia,SK
20,Besa,48.138085999999845,18.40189049999978,Slovakia,SK
21,Bielovec,47.996451499999836,18.774579999999787,Slovakia,SK
22,Bina,47.92014449999985,18.635095499999778,Slovakia,SK
23,Binovce,48.501284499999855,17.472688499999776,Slovakia,SK
24,Blhovce,48.278985499999834,19.95648849999978,Slovakia,SK
25,Bodza,47.83499899999984,17.820371499999794,Slovakia,SK
26,Bohdanovce,48.650314999999836,21.40079849999978,Slovakia,SK
27,Bohunovo,48.51185249999983,20.380423999999778,Slovakia,SK
28,Boleraz,48.47017149999985,17.498500999999777,Slovakia,SK
29,Borsa,48.393879999999854,21.70738899999978,Slovakia,SK
30,Borsky Mikulas,48.64236149999985,17.191765999999774,Slovakia,SK
31,Bosany,48.594493999999855,18.245142499999787,Slovakia,SK
32,Bratislava hlavna stanica,48.159129499999835,17.106213999999795,Slovakia,SK
33,Bratislava-Lamac,48.184457999999836,17.051339999999783,Slovakia,SK
34,Bratislava-Nove Mesto,48.17166399999985,17.14738749999978,Slovakia,SK
35,Bratislava-Petrzalka,48.120145499999836,17.098258499999787,Slovakia,SK
36,Bratislava-Raca,48.20892849999984,17.16109099999977,Slovakia,SK
37,Bratislava-Vajnory,48.19487299999983,17.206950999999776,Slovakia,SK
38,Bratislava-vychod,48.19596399999983,17.175240499999774,Slovakia,SK
39,Brekov,48.90340099999983,21.84169849999978,Slovakia,SK
40,Brestovany,48.38213749999986,17.691348999999775,Slovakia,SK
41,Brestovec,48.78607099999985,17.55756649999978,Slovakia,SK
42,Breznicka,48.42321049999984,19.739811999999773,Slovakia,SK
43,Brezno,48.801112499999846,19.629946999999788,Slovakia,SK
44,Brezno-Rohozna,48.79534099999984,19.70786099999978,Slovakia,SK
45,Brodske,48.69256049999984,17.02302199999977,Slovakia,SK
46,Brunovce,48.68312349999985,17.845640499999774,Slovakia,SK
47,Brusno,48.79181649999984,19.386282999999793,Slovakia,SK
48,Budkovce,48.631335999999834,21.924789499999775,Slovakia,SK
49,Bukova,48.55138849999983,17.45052199999978,Slovakia,SK
50,Busovce,49.21901199999985,20.493481999999773,Slovakia,SK
51,Bystre,49.003539499999846,21.54177999999979,Slovakia,SK
52,Bystricany,48.65887349999986,18.489495999999775,Slovakia,SK
53,Bytca,49.206510999999836,18.551620999999784,Slovakia,SK
54,Bytcica,49.18689149999983,18.72836799999979,Slovakia,SK
55,Bzenica,48.53403899999984,18.74401249999977,Slovakia,SK
56,Bziny,49.22939899999983,19.320375499999784,Slovakia,SK
57,Cachtice,48.721438499999834,17.798547999999784,Slovakia,SK
58,Cadca,49.44406499999985,18.788682499999794,Slovakia,SK
59,Cakajovce,48.37167099999985,18.035255499999778,Slovakia,SK
60,Camovce,48.25060449999984,19.889337999999782,Slovakia,SK
61,Cana,48.60967199999985,21.30957399999977,Slovakia,SK
62,Cata,47.955948499999835,18.64846099999977,Slovakia,SK
63,Cecejovce,48.58646699999986,21.068622999999775,Slovakia,SK
64,Celovce,48.61190699999983,21.62959349999977,Slovakia,SK
65,Cerencany,48.41204749999986,19.989892999999768,Slovakia,SK
66,Cermel,48.74974449999985,21.22856399999978,Slovakia,SK
67,Cerova-Lieskova,48.59660549999984,17.403539999999794,Slovakia,SK
68,Cervena Skala,48.82336349999986,20.131614999999783,Slovakia,SK
69,Ceske Brezovo,48.476965499999835,19.801643999999783,Slovakia,SK
70,Cestice,48.58638349999984,21.09790799999979,Slovakia,SK
71,Chmelnica,49.29204049999984,20.730726499999776,Slovakia,SK
72,Chotin,47.80875449999985,18.18988699999977,Slovakia,SK
73,Chrabrany,48.53100449999985,18.147348499999794,Slovakia,SK
74,Chrast nad Hornadom,48.92552999999984,20.699897499999793,Slovakia,SK
75,Chrenovec,48.778114499999845,18.712815999999776,Slovakia,SK
76,Chvatimech,48.80395099999984,19.55978399999978,Slovakia,SK
77,Chynorany,48.607822499999855,18.274667999999792,Slovakia,SK
78,Cierna nad Tisou,48.41992399999984,22.087046499999786,Slovakia,SK
79,Cierne Polesie,49.51178199999984,18.86024349999977,Slovakia,SK
80,Cierne nad Toplou,48.989839999999845,21.569398499999778,Slovakia,SK
81,Cierne pri Cadci,49.50971799999985,18.845809999999773,Slovakia,SK
82,Cifer,48.322925499999855,17.486521499999782,Slovakia,SK
83,Coltovo,48.49421049999984,20.37037099999978,Slovakia,SK
84,Cremosne,48.840517499999834,18.948964999999788,Slovakia,SK
85,Demjata,49.09987799999985,21.312705999999793,Slovakia,SK
86,Detva,48.53398099999984,19.405557499999787,Slovakia,SK
87,Devinska Nova Ves,48.21903749999984,16.976425499999777,Slovakia,SK
88,Devinske Jazero,48.25077949999985,16.961003999999775,Slovakia,SK
89,Dlha nad Oravou,49.26469699999984,19.447367999999784,Slovakia,SK
90,Dlhe nad Cirochou,48.95493049999985,22.055276499999792,Slovakia,SK
91,Dlhe nad Cirochou,48.958611999999846,22.066446999999783,Slovakia,SK
92,Dobra pri Ciernej nad Tisou,48.407147999999836,22.025031499999784,Slovakia,SK
93,Dobsinska Ladova Jaskyna,48.87622699999986,20.296776499999766,Slovakia,SK
94,Dohnany,49.14569749999984,18.287120999999786,Slovakia,SK
95,Dolne Hamre,48.474882499999836,18.718663499999792,Slovakia,SK
96,Dolne Kockovce,49.073563999999834,18.325861499999775,Slovakia,SK
97,Dolny Harmanec,48.80523599999984,19.05828299999979,Slovakia,SK
98,Dolny Hricov,49.23370299999985,18.62956799999978,Slovakia,SK
99,Dolny Kubin,49.21642599999984,19.296929499999777,Slovakia,SK
100,Dolny Kubin,49.211790499999836,19.279372499999795,Slovakia,SK
101,Dolny Stal,47.951519999999846,17.743054499999772,Slovakia,SK
102,Drahnov,48.59774599999983,21.97101699999979,Slovakia,SK
103,Drahovce,48.52545149999983,17.78980199999978,Slovakia,SK
104,Drienovec,48.60583099999985,20.953724999999793,Slovakia,SK
105,Drienovska Nova Ves,48.90063199999983,21.245615499999786,Slovakia,SK
106,Drienovska Nova Ves,48.91135999999983,21.245198499999788,Slovakia,SK
107,Druzstevna pri Hornade,48.79576449999985,21.24604199999979,Slovakia,SK
108,Dubnica nad Vahom,48.96646499999986,18.167816999999786,Slovakia,SK
109,Dunajov,49.35969349999985,18.818000499999783,Slovakia,SK
110,Dunajska Streda,47.99338349999985,17.607733499999796,Slovakia,SK
111,Durkova,49.24511749999985,20.87616799999978,Slovakia,SK
112,Dvorniky-Zadiel,48.59940099999986,20.832768499999787,Slovakia,SK
113,Dvory nad Zitavou,47.96858099999986,18.24941149999978,Slovakia,SK
114,Dycka,48.23429549999983,18.286984999999788,Slovakia,SK
115,Filakovo,48.26648249999985,19.83262149999979,Slovakia,SK
116,Forbasy,49.295749999999856,20.621123499999783,Slovakia,SK
117,Fulianka,49.06714249999985,21.334370999999777,Slovakia,SK
118,Galanta,48.18497499999984,17.722737499999795,Slovakia,SK
119,Gan,48.233689999999854,17.723266499999795,Slovakia,SK
120,Ganovce,49.02347049999983,20.31512699999979,Slovakia,SK
121,Gasparovo,48.82508749999985,19.74055649999977,Slovakia,SK
122,Gbelce,47.84943399999983,18.506962499999787,Slovakia,SK
123,Gbely,48.71035149999983,17.08237299999979,Slovakia,SK
124,Gbely,48.72355299999984,17.09112749999977,Slovakia,SK
125,Geca,48.628017999999855,21.296666499999787,Slovakia,SK
126,Gelnava,48.858415499999836,20.94743049999977,Slovakia,SK
127,Gemer,48.45435399999985,20.34515399999978,Slovakia,SK
128,Gemerska Horka,48.53442349999983,20.383812499999777,Slovakia,SK
129,Gemerska Panica,48.47960099999983,20.358886999999783,Slovakia,SK
130,Gemerska Panica,48.47213049999985,20.353560499999787,Slovakia,SK
131,Gortva,48.300872499999855,20.02694649999978,Slovakia,SK
132,Gynov,48.58865349999985,21.307586499999786,Slovakia,SK
133,Hacava,48.626089499999836,19.95339649999977,Slovakia,SK
134,Hajnacka,48.23508349999983,19.93231849999978,Slovakia,SK
135,Handlova,48.725577499999844,18.754212999999794,Slovakia,SK
136,Haniska,48.957392499999855,21.240869499999775,Slovakia,SK
137,Haniska pri Kosiciach,48.632022499999835,21.248997999999773,Slovakia,SK
138,Hankovce,49.02624099999986,21.94784599999977,Slovakia,SK
139,Hanusovce nad Toplou,49.018887499999835,21.519803999999766,Slovakia,SK
140,Hanusovce nad Toplou mesto,49.02405699999986,21.504790999999784,Slovakia,SK
141,Harmanec,48.79724299999984,19.077166499999777,Slovakia,SK
142,Harmanec-jaskyna,48.82262599999984,19.034444999999778,Slovakia,SK
143,Hatalov,48.651789499999836,21.87004749999977,Slovakia,SK
144,Helcmanovce,48.82771899999983,20.86525199999977,Slovakia,SK
145,Helpa,48.856322499999834,19.959302999999778,Slovakia,SK
146,Hertnik,49.21594899999985,21.266603999999774,Slovakia,SK
147,Hlboke,48.63651099999984,17.37273399999978,Slovakia,SK
148,Hlinik nad Hronom,48.53974599999984,18.771301499999794,Slovakia,SK
149,Hlinne,48.95287299999984,21.584120999999783,Slovakia,SK
150,Hlohovec,48.43329199999985,17.80731099999977,Slovakia,SK
151,Hnilec,48.830501499999855,20.50090849999978,Slovakia,SK
152,Hnilec,48.84255899999985,20.500063499999783,Slovakia,SK
153,Hnusta,48.57688249999984,19.957961499999783,Slovakia,SK
154,Hodejov,48.29635599999983,19.97979499999977,Slovakia,SK
155,Holic nad Moravou,48.81430349999985,17.149505499999776,Slovakia,SK
156,Horna Sec,48.198435999999845,18.547248499999768,Slovakia,SK
157,Horna Streda,48.65124799999984,17.836150499999775,Slovakia,SK
158,Horna Stubna,48.83107299999983,18.87761649999979,Slovakia,SK
159,Horna Stubna,48.79223949999985,18.881963999999783,Slovakia,SK
160,Horne Ozorovce,48.737077499999856,18.232790499999794,Slovakia,SK
161,Horne Srnie,48.99743599999985,18.099527999999793,Slovakia,SK
162,Horny Hricov,49.240909499999844,18.643450499999773,Slovakia,SK
163,Horny Smokovec,49.142494999999855,20.24057449999978,Slovakia,SK
164,Hrabovec nad Laborcom,49.09603549999986,21.94183899999979,Slovakia,SK
165,Hrachoviste,48.71793499999984,17.727596999999776,Slovakia,SK
166,Hrhov,48.60669599999986,20.770562999999783,Slovakia,SK
167,Hromos,49.26552949999984,20.80511999999979,Slovakia,SK
168,Hronec,48.795119999999855,19.58260249999978,Slovakia,SK
169,Hronovce,48.00603999999984,18.65010099999978,Slovakia,SK
170,Hronsek,48.648877499999855,19.15945149999979,Slovakia,SK
171,Hronsky Benadik,48.34391449999984,18.561095499999794,Slovakia,SK
172,Hul,48.097864499999844,18.265668999999775,Slovakia,SK
173,Humenne,48.929905999999846,21.900857499999773,Slovakia,SK
174,Hurbanovo,47.87648799999985,18.203391499999782,Slovakia,SK
175,Hutniky,48.60975399999984,21.207254999999776,Slovakia,SK
176,Ilava,49.00232299999985,18.236670499999775,Slovakia,SK
177,Ipelsky Sokolovec,48.024147999999855,18.802922499999795,Slovakia,SK
178,Istebne,49.20130749999984,19.228269499999783,Slovakia,SK
179,Ivanka pri Nitre,48.24435299999985,18.109633999999772,Slovakia,SK
180,Jablonica,48.606317999999845,17.40934649999977,Slovakia,SK
181,Jablonov nad Turnov,48.59947449999984,20.690614499999782,Slovakia,SK
182,Jastraba,48.64415499999984,18.924169499999778,Slovakia,SK
183,Jatov,48.11988899999986,18.005838499999783,Slovakia,SK
184,Jelsovce,48.38369449999985,18.052678499999786,Slovakia,SK
185,Jesenske,48.30472349999985,20.077049999999787,Slovakia,SK
186,Jesenske,48.29954699999985,20.061942499999788,Slovakia,SK
187,Kalinovo,48.39433249999985,19.703160999999767,Slovakia,SK
188,Kalna nad Hromom,48.20401799999985,18.517297999999784,Slovakia,SK
189,Kalsa,48.61516349999985,21.533330999999777,Slovakia,SK
190,Kamanova,48.466334499999846,18.095313999999775,Slovakia,SK
191,Kamenica nad Cirochou,48.93406549999983,21.99179499999977,Slovakia,SK
192,Kamenin,47.88717349999985,18.641618499999794,Slovakia,SK
193,Kamenny Most,47.84834199999983,18.65550349999978,Slovakia,SK
194,Kapusany pri Presove,49.04385399999984,21.32039199999977,Slovakia,SK
195,Katov,48.82853999999983,17.178488499999787,Slovakia,SK
196,Kechnec,48.544159999999835,21.27603049999979,Slovakia,SK
197,Kendice,48.92650349999985,21.247454999999775,Slovakia,SK
198,Kezmarok,49.13957299999984,20.423626499999784,Slovakia,SK
199,Klastor pod Znievom,48.95643849999985,18.852678999999767,Slovakia,SK
200,Kmetovo,48.16834199999985,18.27669199999977,Slovakia,SK
201,Kokava nad Rimavicou,48.56639349999983,19.84183749999977,Slovakia,SK
202,Komarno,47.76974499999986,18.127260999999777,Slovakia,SK
203,Komjatice,48.15207999999984,18.163708499999785,Slovakia,SK
204,Koniarovce,48.43084299999984,18.09068449999978,Slovakia,SK
205,Konska pri Rajci,49.124059499999845,18.669763999999788,Slovakia,SK
206,Kopcany,48.77141799999984,17.12130799999977,Slovakia,SK
207,Kos,48.748807499999856,18.574262499999776,Slovakia,SK
208,Kosice,48.72277499999984,21.26899499999979,Slovakia,SK
209,Kosice,48.70829449999985,21.26619549999978,Slovakia,SK
210,Koskovce,49.05147599999984,21.95463749999979,Slovakia,SK
211,Kostany nad Turcom,49.02865299999985,18.905865999999776,Slovakia,SK
212,Kostiviarska,48.75780799999984,19.14450149999979,Slovakia,SK
213,Kostolna-Zarecie,48.87803049999985,17.975822999999792,Slovakia,SK
214,Kozarovce,48.31209499999986,18.53679699999978,Slovakia,SK
215,Kozelnik,48.515476999999834,19.00475149999977,Slovakia,SK
216,Kralovany,49.15295199999986,19.12958549999979,Slovakia,SK
217,Kralovska Lehota,49.025644999999855,19.786478999999787,Slovakia,SK
218,Krasna Horka,49.321368999999834,19.545096499999772,Slovakia,SK
219,Krasna nad Hornadom,48.66988449999985,21.29611049999977,Slovakia,SK
220,Krasno nad Kysucou,49.37880849999985,18.835593999999787,Slovakia,SK
221,Krasny Brod,49.24190199999984,21.903921999999767,Slovakia,SK
222,Kremnica,48.697298499999846,18.924144499999784,Slovakia,SK
223,Kremnicke Bane,48.743614499999836,18.902609999999783,Slovakia,SK
224,Kriva,49.288110499999846,19.47554599999978,Slovakia,SK
225,Krivan,48.52884099999986,19.448170999999775,Slovakia,SK
226,Krizovany nad Dudvahom,48.33016299999986,17.66103499999977,Slovakia,SK
227,Krompachy,48.92171949999985,20.88639999999978,Slovakia,SK
228,Krpelany,49.126360499999834,19.083508499999795,Slovakia,SK
229,Kuklov,48.649338999999856,17.069820499999793,Slovakia,SK
230,Kuty,48.661951499999844,17.047976499999777,Slovakia,SK
231,Kuzmice,48.581747499999835,21.579471499999784,Slovakia,SK
232,Kvetoslavov,48.05568549999984,17.35938699999977,Slovakia,SK
233,Kysak,48.85291649999985,21.224012999999786,Slovakia,SK
234,Kysucke Nove Mesto,49.30530699999986,18.783166499999794,Slovakia,SK
235,Lada,49.047244499999834,21.35990049999978,Slovakia,SK
236,Ladce,49.033979499999845,18.29003199999977,Slovakia,SK
237,Lenartovce,48.302718999999854,20.327080999999794,Slovakia,SK
238,Leopoldov,48.441782999999845,17.758620999999778,Slovakia,SK
239,Letanovce,48.97387999999984,20.460234499999785,Slovakia,SK
240,Levice,48.20978449999984,18.593579499999777,Slovakia,SK
241,Licartovce,48.873139999999836,21.240955499999785,Slovakia,SK
242,Lietavska Lucka,49.17562699999985,18.718508499999785,Slovakia,SK
243,Lipany,49.15197649999985,20.959986999999785,Slovakia,SK
244,Lipovnik,48.63213399999984,20.603517499999782,Slovakia,SK
245,Liptovska Tepla,49.099788499999846,19.416766999999794,Slovakia,SK
246,Liptovske Vlachy,49.08773099999985,19.47383149999979,Slovakia,SK
247,Liptovsky Hradok,49.03799249999983,19.721558499999787,Slovakia,SK
248,Liptovsky Mikulas,49.09215199999986,19.605616999999768,Slovakia,SK
249,Liskova,49.08706249999983,19.35253949999978,Slovakia,SK
250,Lok,48.18507999999986,18.472858999999772,Slovakia,SK
251,Lovinobana,48.444697999999846,19.57494799999978,Slovakia,SK
252,Lubisa,49.00397799999985,21.944084499999775,Slovakia,SK
253,Lubochna,49.127744999999834,19.17223299999978,Slovakia,SK
254,Lubotin,49.262695499999836,20.873178499999767,Slovakia,SK
255,Lucatin,48.78148649999986,19.31406849999979,Slovakia,SK
256,Lucenec,48.33593699999983,19.668023499999777,Slovakia,SK
257,Lucnica nad Zitnavou,48.217459999999846,18.283392499999792,Slovakia,SK
258,Ludanice,48.504811999999845,18.11903799999979,Slovakia,SK
259,Luky pod Makytou,49.191103999999854,18.22810199999978,Slovakia,SK
260,Luzianka,48.35189599999984,18.02365249999977,Slovakia,SK
261,Lysa pod Makytou,49.19524399999983,18.195367499999776,Slovakia,SK
262,Makov,49.372028999999856,18.48429749999977,Slovakia,SK
263,Mala Lodina,48.87377349999986,21.13437799999977,Slovakia,SK
264,Mala Mana,48.13578299999983,18.257909499999784,Slovakia,SK
265,Malacky,48.43285699999984,17.023251499999787,Slovakia,SK
266,Maly Cepcin,48.90462049999985,18.84340549999979,Slovakia,SK
267,Mana,48.15582999999984,18.27054149999978,Slovakia,SK
268,Margecany,48.889748499999854,21.040224999999765,Slovakia,SK
269,Margecany,48.89486449999984,21.01290199999977,Slovakia,SK
270,Markusovce,48.91022949999984,20.63419849999977,Slovakia,SK
271,Matejovce pri Poprade,49.08169999999984,20.334055499999778,Slovakia,SK
272,Matovce,48.55911149999986,22.12897049999978,Slovakia,SK
273,Matrin,49.065180499999855,18.91536549999978,Slovakia,SK
274,Medzibrod,48.791409499999844,19.35749199999978,Slovakia,SK
275,Medzibrodie nad Oravou,49.233947999999856,19.34569399999978,Slovakia,SK
276,Medzilaborce,49.261392999999856,21.905206499999764,Slovakia,SK
277,Melcice,48.836658999999855,17.91905399999979,Slovakia,SK
278,Michalany,48.52033799999984,21.62707999999978,Slovakia,SK
279,Michalovce,48.72966999999986,21.88683249999977,Slovakia,SK
280,Michalovce,48.74988049999985,21.899129499999788,Slovakia,SK
281,Milochov,49.134869999999836,18.38319999999979,Slovakia,SK
282,Miloslavov,48.085634499999856,17.30147649999978,Slovakia,SK
283,Mlynky,48.854478999999856,20.40721499999978,Slovakia,SK
284,Mnichova Lehota,48.81299899999985,18.087572499999794,Slovakia,SK
285,Mnisek nad Hnilcom,48.81166249999984,20.814964499999775,Slovakia,SK
286,Modra nad Cirochou,48.948202999999836,22.03537399999979,Slovakia,SK
287,Modransky Svaty Jan,48.58735599999986,17.00916799999979,Slovakia,SK
288,Mokrad,49.100257499999856,19.246806499999792,Slovakia,SK
289,Mokrance,48.590846999999854,21.02246649999978,Slovakia,SK
290,Moldava,48.60273949999984,21.001710999999773,Slovakia,SK
291,Muzla,47.81312249999985,18.595001999999795,Slovakia,SK
292,Myjava,48.76356899999985,17.571004999999786,Slovakia,SK
293,Mytna,48.46561549999984,19.548347499999778,Slovakia,SK
294,Mytna Nova Ves,48.48416949999984,18.103441499999775,Slovakia,SK
295,Nacina Ves,48.81852949999984,21.843102999999786,Slovakia,SK
296,Nalepkovo,48.83834499999983,20.630071499999787,Slovakia,SK
297,Nalepkovo-Peklisko,48.816449499999834,20.54812949999979,Slovakia,SK
298,Nedozery-Brezany,48.81544199999985,18.645618499999784,Slovakia,SK
299,Nemcovce,49.04909299999986,21.40506449999978,Slovakia,SK
300,Nemecka,48.81364449999984,19.439724999999783,Slovakia,SK
301,Nemsova,48.96774449999984,18.121813999999773,Slovakia,SK
302,Nitra,48.300140999999854,18.079489999999794,Slovakia,SK
303,Nizna,49.30974399999985,19.52720999999977,Slovakia,SK
304,Nizna Mysla,48.628971999999834,21.37204399999979,Slovakia,SK
305,Nizna Sebastova,49.03600299999985,21.283279499999765,Slovakia,SK
306,Nizne Ruzbachy,49.27631499999984,20.57870299999979,Slovakia,SK
307,Nizny Hrabovec,48.85702449999985,21.75179099999977,Slovakia,SK
308,Nizny Kelcov,49.37696549999984,18.507143499999785,Slovakia,SK
309,Nizny Skalnik,48.45296199999984,19.96768949999978,Slovakia,SK
310,Nosice,49.12901099999985,18.35545799999977,Slovakia,SK
311,Nova Bana,48.41819049999984,18.65628499999977,Slovakia,SK
312,Nova Lesna,49.115927999999855,20.261953499999777,Slovakia,SK
313,Nova Polianka,49.11830549999985,20.149771999999786,Slovakia,SK
314,Novaky,48.71781549999986,18.535838499999784,Slovakia,SK
315,Nove Kosariska,48.10002649999984,17.27656849999977,Slovakia,SK
316,Nove Mesto nad Vahom,48.75157299999984,17.83624999999978,Slovakia,SK
317,Nove Zamky,47.99608949999984,18.172586499999795,Slovakia,SK
318,Obisovce,48.86140699999984,21.245328499999772,Slovakia,SK
319,Ochodnica,49.34774499999983,18.80668449999979,Slovakia,SK
320,Okoc,47.896123999999844,17.794814499999774,Slovakia,SK
321,Okolicna na Ostrove,47.79368149999985,17.89856949999978,Slovakia,SK
322,Olcnava,48.926101499999845,20.74828599999978,Slovakia,SK
323,Opatova nad Vahom,48.91225299999985,18.088531999999788,Slovakia,SK
324,Oravka,48.30535349999985,20.19506899999979,Slovakia,SK
325,Oravsky Podzamok,49.26018349999984,19.36341349999978,Slovakia,SK
326,Orechova Poton,48.01441299999985,17.530379499999782,Slovakia,SK
327,Orkucany,49.086798499999844,21.109858499999774,Slovakia,SK
328,Orlov,49.27921249999986,20.869389499999784,Slovakia,SK
329,Oslany,48.641087499999855,18.463641499999795,Slovakia,SK
330,Ostratice,48.64748399999985,18.27233549999977,Slovakia,SK
331,Palarikovo,48.06023749999986,18.081553999999784,Slovakia,SK
332,Paprad,48.780553499999854,17.644024499999773,Slovakia,SK
333,Parnica,49.19318099999984,19.197615999999783,Slovakia,SK
334,Partizanske,48.627203999999836,18.369565499999794,Slovakia,SK
335,Pastovce,47.972593999999845,18.749713999999784,Slovakia,SK
336,Pavlovce,49.03339549999984,21.46015399999979,Slovakia,SK
337,Pecovska Nova Ves,49.12060849999983,21.040396499999787,Slovakia,SK
338,Pekna vyhliadka,49.13944899999984,20.23336999999978,Slovakia,SK
339,Penizok zastavka,48.267288999999835,17.24643999999978,Slovakia,SK
340,Petrovce nad Laborcom,48.79762149999985,21.860233499999765,Slovakia,SK
341,Pezinok,48.282410499999855,17.27046949999979,Slovakia,SK
342,Piestany,48.59628149999983,17.814751499999772,Slovakia,SK
343,Pila,48.48241299999984,19.514913999999777,Slovakia,SK
344,Pionier,48.759655999999836,21.183908499999774,Slovakia,SK
345,Plavec,49.26941049999985,20.85110549999979,Slovakia,SK
346,Plavecky Stvrtok,48.372483499999845,17.00753149999977,Slovakia,SK
347,Plavnica,49.28787199999985,20.779203999999766,Slovakia,SK
348,Plesivec,48.553450499999855,20.411928999999787,Slovakia,SK
349,Pod lesom,49.125923999999856,20.245052499999787,Slovakia,SK
350,Podbiel,49.30394049999984,19.478504999999785,Slovakia,SK
351,Podbrezova,48.81016449999984,19.52309699999978,Slovakia,SK
352,Podhajska,48.10276749999986,18.345329499999792,Slovakia,SK
353,Podkrivan,48.515877499999846,19.467185499999772,Slovakia,SK
354,Podolinec,49.25538499999985,20.52665799999977,Slovakia,SK
355,Podunajske Biskupice,48.131549999999834,17.22072499999979,Slovakia,SK
356,Pohorela,48.851720999999856,20.013787999999778,Slovakia,SK
357,Pohorelska Masa,48.848561499999846,20.028929499999776,Slovakia,SK
358,Pohronsky Ruskov,47.975576999999845,18.648555499999787,Slovakia,SK
359,Polhronska Polhora,48.758823999999834,19.792799499999774,Slovakia,SK
360,Polomka,48.84641499999984,19.854386999999775,Slovakia,SK
361,Poltar,48.42876049999984,19.795413999999766,Slovakia,SK
362,Poluvsie,49.13316949999984,18.703667499999767,Slovakia,SK
363,Poprad-Tatry,49.06009899999984,20.29527799999977,Slovakia,SK
364,Poriadie,48.77605599999984,17.61571699999979,Slovakia,SK
365,Porubka,49.14976449999983,18.728445499999793,Slovakia,SK
366,Povazska Bystrica,49.12258549999984,18.432128999999776,Slovakia,SK
367,Povazska Tepla,49.14006499999985,18.46808999999979,Slovakia,SK
368,Pozba,48.11546499999986,18.38816349999979,Slovakia,SK
369,Prakovce,48.82007249999984,20.885829499999772,Slovakia,SK
370,Pravenec,48.84055649999985,18.645099499999787,Slovakia,SK
371,Preselany,48.44842749999984,18.09342449999977,Slovakia,SK
372,Presov,48.98345549999985,21.248880499999785,Slovakia,SK
373,Presov mesto,48.997130999999854,21.232227999999765,Slovakia,SK
374,Pribenik,48.39942049999985,21.99928449999979,Slovakia,SK
375,Pribeta,47.93724849999984,18.318058999999778,Slovakia,SK
376,Pribovce,48.993651999999855,18.87956749999978,Slovakia,SK
377,Prievidza,48.774793999999844,18.61669999999978,Slovakia,SK
378,Prsa,48.29682299999985,19.79255299999977,Slovakia,SK
379,Pstrusa,48.55324649999986,19.31326949999979,Slovakia,SK
380,Puchov,49.11391899999984,18.32732299999978,Slovakia,SK
381,Puste Pole,49.21368799999985,20.91473949999977,Slovakia,SK
382,Puste Ulany,48.20811149999983,17.54329899999979,Slovakia,SK
383,Radava,48.09809049999984,18.305379999999786,Slovakia,SK
384,Radvan,48.71718199999984,19.140425499999793,Slovakia,SK
385,Radvan nad Laborcom,49.13480699999985,21.921940999999777,Slovakia,SK
386,Rajec,49.08999249999985,18.643988999999777,Slovakia,SK
387,Rajecke Teplice,49.129440999999844,18.67887449999978,Slovakia,SK
388,Rakova,49.446897499999835,18.73657899999978,Slovakia,SK
389,Rakovec,48.84207549999985,20.435122999999777,Slovakia,SK
390,Raslavice,49.14943899999983,21.31425249999978,Slovakia,SK
391,Reca,48.21929699999984,17.455486999999778,Slovakia,SK
392,Remeta,48.752507999999835,18.805383499999778,Slovakia,SK
393,Richnava,48.92268049999984,20.92559399999979,Slovakia,SK
394,Rimavska Bana,48.509963999999854,19.94468249999977,Slovakia,SK
395,Rimavska Pila,48.65007199999985,19.947641499999776,Slovakia,SK
396,Rimavska Sec,48.306917499999855,20.22705899999977,Slovakia,SK
397,Rimavska Sobota,48.385807499999856,20.027746999999778,Slovakia,SK
398,Rimavske Janovce,48.35240149999984,20.056006999999767,Slovakia,SK
399,Rimavske Zaluzany,48.49953749999983,19.940324999999774,Slovakia,SK
400,Risnovce,48.37352799999985,17.88973649999977,Slovakia,SK
401,Rovinka,48.10773749999984,17.25599299999979,Slovakia,SK
402,Rozkovany,49.14337199999986,20.99246249999979,Slovakia,SK
403,Roznava,48.63471549999986,20.51330699999977,Slovakia,SK
404,Rudina,49.28015399999984,18.75738549999977,Slovakia,SK
405,Rudno nad Hronom,48.43545899999984,18.68266049999977,Slovakia,SK
406,Ruskovce,48.74806249999983,18.197559999999783,Slovakia,SK
407,Ruzomberok,49.083421499999844,19.309298499999784,Slovakia,SK
408,Rybany,48.66951349999985,18.261540999999795,Slovakia,SK
409,Sabinov,49.10344499999985,21.08805149999978,Slovakia,SK
410,Sajdikove Humence,48.65990849999986,17.262615499999782,Slovakia,SK
411,Sala,48.147181999999844,17.861519499999787,Slovakia,SK
412,Salkova,48.741242499999856,19.218153499999772,Slovakia,SK
413,Sarisske Michalany,49.06525849999986,21.139366999999766,Slovakia,SK
414,Sasovske Podhradie,48.58799199999984,18.906612499999795,Slovakia,SK
415,Sastin-Straze,48.63380999999984,17.142965499999775,Slovakia,SK
416,Sedliacka Dubova,49.258387999999854,19.431742999999784,Slovakia,SK
417,Sekule,48.607924499999854,17.019185499999793,Slovakia,SK
418,Selpice,48.42708399999984,17.53785099999979,Slovakia,SK
419,Senec,48.213527499999856,17.413794999999794,Slovakia,SK
420,Senica,48.665812999999844,17.334406499999773,Slovakia,SK
421,Senkvice,48.301749999999856,17.346172499999795,Slovakia,SK
422,Sered,48.29027799999986,17.72684849999979,Slovakia,SK
423,Siladice,48.37122399999984,17.736693499999774,Slovakia,SK
424,Skalica,48.85032399999983,17.21877649999979,Slovakia,SK
425,Skalite,49.50521799999984,18.87241849999978,Slovakia,SK
426,Skalite,49.49818249999984,18.890097999999767,Slovakia,SK
427,Sklene pri Handlovej,48.78282299999984,18.84197999999978,Slovakia,SK
428,Sladkovicovo,48.19558649999985,17.62934199999978,Slovakia,SK
429,Slanec,48.642674999999855,21.487818499999776,Slovakia,SK
430,Slatinka,48.560493999999835,19.237994499999786,Slovakia,SK
431,Slavec-Jaskyna,48.57545199999984,20.463509999999786,Slovakia,SK
432,Slepcany,48.31622549999983,18.341524499999792,Slovakia,SK
433,Sliac,48.614322499999844,19.14952249999979,Slovakia,SK
434,Slovenska Lupca,48.76263049999986,19.275727999999788,Slovakia,SK
435,Slovenske Nove Mesto,48.403958999999844,21.667441999999767,Slovakia,SK
436,Smizany,48.95327149999986,20.523091499999794,Slovakia,SK
437,Smolenice,48.52007499999985,17.45549399999979,Slovakia,SK
438,Snina,48.98992149999984,22.156585999999777,Slovakia,SK
439,Snina,48.98372149999983,22.17410849999979,Slovakia,SK
440,Soblahov,48.852918999999844,18.06213349999979,Slovakia,SK
441,Sol,48.931913999999836,21.60055399999979,Slovakia,SK
442,Somotor,48.389560499999845,21.808581499999775,Slovakia,SK
443,Spisska Bela,49.18670849999984,20.45139599999979,Slovakia,SK
444,Spisska Nova Ves,48.95095099999983,20.55516899999978,Slovakia,SK
445,Spisske Podhradie,48.99571399999985,20.75604249999978,Slovakia,SK
446,Spisske Tomasovce,48.96452749999983,20.474524499999774,Slovakia,SK
447,Spisske Vlachy,48.935200999999836,20.803282999999766,Slovakia,SK
448,Stakcin,48.99605249999985,22.21777949999978,Slovakia,SK
449,Stara Kremnicka,48.599849499999834,18.894153999999787,Slovakia,SK
450,Stara Lesna,49.15456899999984,20.27033449999979,Slovakia,SK
451,Stara Lubovna,49.30834649999986,20.680219999999792,Slovakia,SK
452,Stara Tura,48.772995999999836,17.70047999999977,Slovakia,SK
453,Stary Smokovec,49.139245499999845,20.223225499999785,Slovakia,SK
454,Stozok,48.53822649999984,19.358472499999777,Slovakia,SK
455,Stratena,48.869256499999835,20.34198649999979,Slovakia,SK
456,Strazky,49.16265149999984,20.44726449999979,Slovakia,SK
457,Strazske,48.86764899999986,21.82470399999977,Slovakia,SK
458,Strba,49.06233799999984,20.083085499999783,Slovakia,SK
459,Strbske Pleso,49.11824499999983,20.063726499999774,Slovakia,SK
460,Strecno,49.18126699999985,18.869040999999783,Slovakia,SK
461,Streda nad Bodrogom,48.39031699999984,21.75793799999977,Slovakia,SK
462,Strekov,47.90063249999986,18.39828099999977,Slovakia,SK
463,Strelenka,49.183707999999854,18.144274499999796,Slovakia,SK
464,Strkovec,48.35497299999983,20.328206499999766,Slovakia,SK
465,Sturovo,47.79954199999983,18.677937499999786,Slovakia,SK
466,Surany,48.08484249999984,18.17267899999979,Slovakia,SK
467,Surovec,48.32793699999985,17.722239999999772,Slovakia,SK
468,Svaty Jur,48.247404999999844,17.21744899999979,Slovakia,SK
469,Svedlar,48.80582049999984,20.722879999999776,Slovakia,SK
470,Svinna,48.78103299999984,18.172390999999777,Slovakia,SK
471,Svit,49.060887499999836,20.197820999999777,Slovakia,SK
472,Svosov,49.12050449999984,19.210083999999767,Slovakia,SK
473,Svrcinovec,49.480005499999834,18.792468999999784,Slovakia,SK
474,Tahanovce,48.75765099999984,21.25172399999977,Slovakia,SK
475,Tatranska Lesna,49.14998949999983,20.256824999999793,Slovakia,SK
476,Tatranska Lomnica,49.14888099999985,20.315156999999772,Slovakia,SK
477,Tatranska Lomnica,49.16470599999985,20.279208499999783,Slovakia,SK
478,Tatranska Polianka,49.122265499999855,20.18535099999977,Slovakia,SK
479,Tatranska Strba,49.084280999999834,20.065321499999783,Slovakia,SK
480,Tatranska Strba,49.083653499999855,20.065522499999787,Slovakia,SK
481,Tatranske Zruby,49.13044899999986,20.199517499999786,Slovakia,SK
482,Tatransky Lieskovec,49.092779499999835,20.067383499999778,Slovakia,SK
483,Tekovska Breznica,48.38209549999985,18.604262999999776,Slovakia,SK
484,Tekovske Luzany,48.10023399999986,18.563545499999776,Slovakia,SK
485,Tekovsky Hradok,48.158859999999834,18.554915499999794,Slovakia,SK
486,Telgart,48.83993099999984,20.186522499999768,Slovakia,SK
487,Teplicka nad Vahom,49.21688399999985,18.78638499999977,Slovakia,SK
488,Tesare Mlynany,48.343896999999856,18.359711499999776,Slovakia,SK
489,Tisovec,48.67994949999985,19.947179499999777,Slovakia,SK
490,Tisovec,48.690667999999846,19.935603999999785,Slovakia,SK
491,Tomasovce,48.36909199999985,19.626912499999776,Slovakia,SK
492,Topolcany,48.56274049999985,18.169778999999778,Slovakia,SK
493,Topolcianky,48.41130899999985,18.406328499999773,Slovakia,SK
494,Tornala,48.422641499999855,20.33092449999978,Slovakia,SK
495,Trebisov,48.634006999999855,21.71141149999977,Slovakia,SK
496,Trebisov Hriniste,48.65311899999983,21.77536649999979,Slovakia,SK
497,Trencianska Tepla,48.93851999999984,18.114168499999778,Slovakia,SK
498,Trencianska Turna,48.85881149999983,18.019500499999793,Slovakia,SK
499,Trencianske Bohuslavice,48.80183649999984,17.874000999999794,Slovakia,SK
500,Trencianske Jastrabie,48.80087949999984,18.11918899999978,Slovakia,SK
501,Trencin,48.89645799999985,18.05459449999978,Slovakia,SK
502,Treti Hamor,48.816718999999836,20.582880999999787,Slovakia,SK
503,Trnava,48.368453499999845,17.582010999999795,Slovakia,SK
504,Trnava predmestie,48.39063999999985,17.56680449999979,Slovakia,SK
505,Trnovec nad Vahom,48.152780999999834,17.928361999999794,Slovakia,SK
506,Trstena,49.36165699999984,19.62040849999977,Slovakia,SK
507,Tulcik,49.087860499999834,21.30688299999977,Slovakia,SK
508,Turany,49.109582999999844,19.03769299999979,Slovakia,SK
509,Turcek,48.75925249999983,18.917574499999773,Slovakia,SK
510,Turcianske Teplice,48.87508999999986,18.850749999999778,Slovakia,SK
511,Turna nad Bodvou,48.59754649999985,20.88887299999979,Slovakia,SK
512,Turzovka,49.40363349999984,18.627992999999776,Slovakia,SK
513,Tvrdosin,49.33707499999986,19.563069999999783,Slovakia,SK
514,Tvrdosovce,48.092392999999845,18.04082299999979,Slovakia,SK
515,Ulanka,48.80133599999985,19.09960099999978,Slovakia,SK
516,Ulany nad Zitavou,48.09794499999984,18.233162499999793,Slovakia,SK
517,Upor,48.57721499999985,21.67168799999979,Slovakia,SK
518,Utekac,48.601008999999834,19.805102999999775,Slovakia,SK
519,Vadovce,48.73098699999986,17.724658499999776,Slovakia,SK
520,Valkovna,48.83390599999984,20.06688299999979,Slovakia,SK
521,Vaniskovce,49.16501899999983,21.290246499999768,Slovakia,SK
522,Varin,49.20152499999983,18.847802499999773,Slovakia,SK
523,Vazec,49.06612449999983,19.987029499999778,Slovakia,SK
524,Velaty,48.52780399999983,21.654671999999778,Slovakia,SK
525,Velicna,49.20238649999985,19.252791499999773,Slovakia,SK
526,Velka Ida,48.591127999999856,21.17171049999979,Slovakia,SK
527,Velka Lomnica,49.11126299999984,20.359789499999778,Slovakia,SK
528,Velka Paka,48.03858149999985,17.40327949999977,Slovakia,SK
529,Velka Ves,48.38100749999984,19.686875499999786,Slovakia,SK
530,Velke Blahovo,48.00614699999986,17.57693549999979,Slovakia,SK
531,Velke Kapusany,48.560943999999836,22.06703399999978,Slovakia,SK
532,Velke Kapusany,48.55473699999985,22.085852999999787,Slovakia,SK
533,Velke Kostolany,48.50681699999984,17.773804499999784,Slovakia,SK
534,Velke Kozmalovce,48.27932949999985,18.54909749999979,Slovakia,SK
535,Velke Levare,48.50902149999985,17.01886849999977,Slovakia,SK
536,Velke Teriakovce,48.43696549999984,19.97356549999978,Slovakia,SK
537,Velke Uherce,48.62548449999986,18.42480349999977,Slovakia,SK
538,Velky Hores,48.39034349999986,21.913693999999765,Slovakia,SK
539,Velky Kyr,48.183294499999846,18.150833999999776,Slovakia,SK
540,Velky Meder,47.86145049999985,17.78181699999979,Slovakia,SK
541,Velky Saris,49.044455499999856,21.203164999999785,Slovakia,SK
542,Velky Sarissky hrad,49.06133349999985,21.188970999999782,Slovakia,SK
543,Velky Slavkov,49.09117049999983,20.27748649999978,Slovakia,SK
544,Vernar,48.88196799999983,20.23659399999977,Slovakia,SK
545,Vidova,48.56183249999984,20.441686499999776,Slovakia,SK
546,Viglas,48.55423999999985,19.282277499999793,Slovakia,SK
547,Visnove,48.725302999999855,17.752550499999785,Slovakia,SK
548,Vitkovce,48.925448499999845,20.71688199999977,Slovakia,SK
549,Vlkanova,48.670667999999836,19.148928999999782,Slovakia,SK
550,Vojany,48.57136699999984,21.99860799999979,Slovakia,SK
551,Voznica,48.45943649999984,18.691341499999794,Slovakia,SK
552,Vpred,48.75164249999983,21.204388999999765,Slovakia,SK
553,Vranov nad Toplov,48.88997899999984,21.674068999999776,Slovakia,SK
554,Vrutky,49.11519849999985,18.924523499999793,Slovakia,SK
555,Vychodna,49.05019049999984,19.916260999999793,Slovakia,SK
556,Vyskovce nad Iplom,48.054586999999856,18.859069499999777,Slovakia,SK
557,Vysna Mysla,48.63754649999984,21.383273499999774,Slovakia,SK
558,Vysne Cabiny,49.187144999999845,21.89715549999977,Slovakia,SK
559,Vysoka nad Kysucou,49.379530999999844,18.549173499999768,Slovakia,SK
560,Vysoka pri Morave,48.333886499999835,16.91297499999979,Slovakia,SK
561,Zabokreky nad Nitrou,48.616915499999834,18.297999499999776,Slovakia,SK
562,Zahorska Ves,48.37754099999984,16.84403649999979,Slovakia,SK
563,Zarecie,49.17706699999985,18.25282649999977,Slovakia,SK
564,Zarnovica,48.48573949999985,18.72794399999978,Slovakia,SK
565,Zavadka nad Hronom,48.84818199999984,19.913904999999772,Slovakia,SK
566,Zavod,48.538395999999835,17.007975499999787,Slovakia,SK
567,Zbehy,48.38062799999983,18.00189949999978,Slovakia,SK
568,Zbudske Dlhe,49.072884499999844,21.954920499999787,Slovakia,SK
569,Zbynov,49.11721599999984,18.65559749999977,Slovakia,SK
570,Zeliezovce,48.04412699999983,18.64590599999977,Slovakia,SK
571,Zemianska Olca,47.807668999999834,17.853318499999773,Slovakia,SK
572,Zemianske Kostolany,48.68434499999984,18.51925399999979,Slovakia,SK
573,Ziar nad Hronom,48.56961149999984,18.85298149999977,Slovakia,SK
574,Zilina,49.192158499999834,18.733909499999783,Slovakia,SK
575,Zilina,49.227074499999844,18.74673599999977,Slovakia,SK
576,Zlate Moravce,48.38580599999983,18.376349999999775,Slovakia,SK
577,Zlatna na Ostrove,47.77508449999985,17.977205999999768,Slovakia,SK
578,Zlatno,48.82870349999985,20.089537999999777,Slovakia,SK
579,Zlatovce,48.90065449999983,18.02199799999977,Slovakia,SK
580,Zohor,48.324917999999855,16.991233499999794,Slovakia,SK
581,Zvolen,48.56952499999986,19.12112499999978,Slovakia,SK
582,Zvolen,48.57233599999984,19.16051699999977,Slovakia,SK
583,Zvolen,48.57266549999986,19.145603999999793,Slovakia,SK
