node_ID,node_label,longitude,latitude
1,Rudna Wielka,21.933983999999786,50.08039799999983
2,Swilcza,21.90073449999977,50.078204999999855
3,Rzeszow,22.005496499999765,50.04279399999984
4,Pietrowice Wielkie,18.09242649999979,50.08441699999983
5,Baborow,17.977942499999784,50.15568949999985
6,Wojnowice,18.13366899999977,50.06400649999984
7,Kietrz,18.007345999999785,50.07610949999983
8,Raclawice Slaskie,17.763792499999795,50.31186749999984
9,Glogowek,17.87487299999978,50.34707799999984
10,Prudnik,17.585365499999796,50.328711499999855
11,Jankow Przygodzki,17.808937499999786,51.61011499999984
12,Przygodzice,17.828693499999787,51.57118349999985
13,Ostrow Wielkopolski,17.805297499999796,51.649811999999855
14,Kamien Pomorski,14.777684499999792,53.96766749999984
15,Wysoka Kamienska,14.832052499999776,53.82826549999984
16,Zwieczyca,21.95521999999977,50.00497299999984
17,Czudec,21.836773499999765,49.93984799999984
18,Lomza,22.063617999999764,53.17130049999983
19,Sniadowo,22.03780099999977,53.09761049999983
20,Piechcin,18.037920999999784,52.81825499999985
21,Pakosc,18.080803999999773,52.802215999999845
22,Barcin,17.941888499999777,52.85211499999983
23,Szczecin Glowny,14.549815499999797,53.41860149999985
24,Police,14.565032999999772,53.54988299999985
25,Suwalki,22.943949999999774,54.10603449999985
26,Augustow,23.03094649999977,53.85104649999983
27,Raczki,22.758910499999786,53.99512699999983
28,Trakiszki,23.22894549999978,54.26486899999984
29,Klewki,20.59113999999977,53.72766599999983
30,Szczytno,20.99977399999977,53.55960499999984
31,Olsztyn Glowny,20.50360699999979,53.78710099999984
32,Olszyny,21.122957499999785,53.55315449999984
33,Wielbark,20.952793499999785,53.39827899999983
34,Wola Krzysztoporska,19.5844884999998,51.35223799999983
35,Belchatow,19.277710999999783,51.29643149999984
36,Milejow,19.675587999999777,51.355574999999845
37,Drzewica,20.4659274999998,51.43682149999984
38,Bialobrzegi,20.0732649999998,51.52375899999984
39,Przysucha,20.655326499999774,51.37860899999984
40,Opoczno,20.271720499999788,51.37271199999984
41,Mszczonow,20.52194199999977,51.964612499999845
42,Nowy Targ,20.01622949999978,49.47208949999984
43,Sieniawa,19.926045499999788,49.53940049999986
44,Szaflary,20.01731449999977,49.438956999999846
45,Jastarnia,18.652882499999777,54.70883499999985
46,Kuznica,18.584052999999784,54.73475049999985
47,Hel,18.80137949999977,54.61156499999984
48,Slawno,16.665593499999773,54.35568799999984
49,Darlowo,16.402691499999776,54.41835199999983
50,Wrzesnica,16.774403999999777,54.40202699999983
51,Koszalin,16.169760999999795,54.19147049999984
52,Tczew,18.788325499999782,54.09809049999984
53,Starogard Gdanski,18.52823799999979,53.97792549999983
54,Milobadz,18.739419999999768,54.14804399999983
55,Subkowy,18.76022949999978,54.00137549999985
56,Kiekrz,16.793717499999786,52.47371299999983
57,Rokietnica,16.74905099999978,52.51472199999984
58,Zbaszynek,15.817129999999793,52.24166149999985
59,Legowo,15.675993499999777,52.13245899999984
60,Swiebodzin,15.538978499999786,52.24454799999984
61,Lutol Suchy,15.751574499999776,52.34574499999985
62,Zbaszyn,15.89697149999978,52.25929949999983
63,Karlowice,17.700011999999788,50.878333499999854
64,Popielow,17.762764999999774,50.82957499999984
65,Dlugoleka,17.19424749999979,51.17809249999985
66,Siechnice,17.15320749999978,51.03851749999984
67,Dobrzyn Wielki,17.860105999999774,50.770151999999854
68,Czarnowasy,17.906849999999793,50.71533499999984
69,Poddebice,18.93017999999978,51.87881099999984
70,Barlogi,18.768558499999784,52.21602349999984
71,Szadek,18.961505999999787,51.68024799999984
72,Zdunska Wola,18.95051249999977,51.61147499999984
73,Balin,19.388514999999785,50.17657999999983
74,Dabrowa Gornicza,19.212662499999794,50.31499549999984
75,Bukowno,19.45536449999977,50.26431649999984
76,Slawkow,19.37352699999977,50.295604499999854
77,Myslowice,19.140975999999768,50.23890299999985
78,Chruszczobrod,19.293707999999786,50.38821549999983
79,Chelm,23.48990299999977,51.14081999999985
80,Wlodawa,23.58501099999978,51.51566649999984
81,Rejowiec Fabryczny,23.23722399999977,51.11782749999984
82,Brzezno,23.61621299999979,51.15610799999985
83,Mlynary,19.744673499999777,54.18585049999984
84,Pieniezno,20.12793149999979,54.24420549999985
85,Frombork,19.676375999999777,54.357080499999824
86,Braniewo,19.86838149999977,54.434364499999845
87,Parysow,21.67848199999977,51.959272999999854
88,Stoczek Lukowski,21.959978999999777,51.955096499999854
89,Czechy,21.60499749999977,51.94453049999984
90,Przeworsk,22.51702999999977,50.065922999999856
91,Pelkinie,22.614834499999773,50.045281499999845
92,Grodzisko Dolne,22.50903299999979,50.16984449999984
93,Grzeska,22.450846499999784,50.080133499999846
94,Munina,22.721990499999777,49.98794949999984
95,Jaroslaw,22.68213499999979,50.00992899999983
96,Oleszyce,23.049096499999763,50.159024499999845
97,Radymno,22.83697399999977,49.93528899999984
98,Pamiatkowo,16.68509949999978,52.55383099999983
99,Szamotuly,16.590905499999792,52.60077149999984
100,Wronki,16.38278649999978,52.70539099999985
101,Siedlisko,16.399424499999782,52.98414049999985
102,Swinoujscie,14.265005499999774,53.90371699999983
103,Miedzyzdroje,14.45492349999978,53.92406649999984
104,Malbork,19.04004099999977,54.037029999999845
105,Sztum,19.020647999999767,53.92924699999983
106,Stare Pole,19.206192999999782,54.05321949999984
107,Mikolajki Pomorskie,19.15397999999979,53.85116299999984
108,Trzciana,21.835422499999765,50.07853649999984
109,Chelmce,18.46819749999977,52.62488049999985
110,Piotrkow Kujawski,18.5192529999998,52.53771799999984
111,Inowroclaw,18.239502999999782,52.80115049999984
112,Rawicz,16.839447999999777,51.60935849999984
113,Miejska Gorka,16.952501999999782,51.64788199999984
114,Zmigrod,16.90088849999978,51.46636699999985
115,Bojanowo,16.743919499999777,51.70029199999985
116,Tworkow,18.2475379999998,50.01859399999984
117,Raciborz,18.224909499999768,50.08830949999984
118,Krzyzanowice,18.28440149999977,49.98061449999983
119,Nedza,18.29122799999979,50.15579199999985
120,Kepno,18.001091499999774,51.292106499999846
121,Wieruszow,18.131437499999777,51.299915499999855
122,Slupia,18.04230849999979,51.25104649999983
123,Zadowice,18.513311999999782,50.58071649999985
124,Zawadzkie,18.47154349999977,50.61045299999984
125,Kielcza,18.561717999999782,50.56348799999984
126,Kolonowskie,18.391350999999787,50.650929999999846
127,Lubliniec,18.55879749999977,50.68055349999983
128,Staniszcze Male,18.318776499999785,50.66442699999985
129,Janikowo,18.11381049999977,52.747389999999854
130,Ruciane Nida,21.56423249999977,53.64802349999985
131,Spychowo,21.353887999999785,53.59066149999984
132,Pisz,21.79647449999979,53.63146399999985
133,Lipinki Luzyckie,15.008241499999798,51.64944899999984
134,Sieniawa Zarska,15.060762499999782,51.63661249999984
135,Jasien,15.027447499999797,51.75337499999984
136,Nowogrodziec,15.386274499999786,51.20549249999985
137,Gosciszow,15.448572999999785,51.15792799999983
138,Zebrzydowa,15.39354899999978,51.25433349999983
139,Lwowek Slaski,15.59402849999978,51.10906349999985
140,Marczow,15.665584999999794,51.04953999999984
141,Wlen,15.665290999999796,51.01919149999984
142,Pilchowice Zapora,15.654639499999774,50.96856049999985
143,Sulechow,15.619531499999797,52.09294699999984
144,Raba Wyzna,19.884563999999784,49.54852899999983
145,Rokiciny Podhalanskie,19.90793799999977,49.57927699999985
146,Szaflary Wies,20.007571499999784,49.37665349999983
147,Zakopane,19.961698999999783,49.29990849999984
148,Glubczyce,17.811260999999774,50.19779349999985
149,Jasienica,14.540640999999797,53.589713499999846
150,Trzebiez Szczecinski,14.494406999999796,53.65427499999984
151,Skwierzyna,15.500558999999782,52.59008399999985
152,Rokitno,15.632814499999796,52.57655299999985
153,Miedzyrzecz,15.59188999999978,52.44568849999985
154,Trzebiszewo,15.406436499999783,52.62413449999983
155,Olesnica,17.387977499999778,51.20010999999985
156,Sycow,17.711757499999777,51.28944849999985
157,Borowa,17.27616249999977,51.18431699999985
158,Dobroszyce,17.360544999999775,51.26552149999984
159,Bierutow,17.547195999999786,51.12786599999984
160,Jaroszow,16.42656999999977,50.989374499999855
161,Strzegom,16.35879849999978,50.97410549999984
162,Kobierzyce,16.923674499999777,50.97044099999985
163,Rogow Sobocki,16.759691999999774,50.93424899999985
164,Wroclaw Swiebodzki,17.029408999999788,51.10006499999983
165,Parczew,22.873324999999767,51.62684399999984
166,Grodek,22.787326999999777,51.57102549999985
167,Milanow,22.87560149999979,51.69831249999984
168,Brzeznica Bychawska,22.74737849999977,51.53253249999983
169,Powroznik,20.94191699999979,49.369406499999855
170,Krynica,20.957644499999788,49.40076699999983
171,Siemiatycze,22.944868999999784,52.39137449999984
172,Nurzec,23.081715999999773,52.46001399999983
173,Mordy,22.496426999999784,52.19564199999985
174,Zary,15.137948999999791,51.63433649999985
175,Lodz Fabryczna,19.46948099999977,51.76926499999985
176,Zgierz,19.426032499999792,51.84984699999984
177,Pabianice,19.325699499999786,51.661511999999846
178,Justynow,19.68706149999977,51.72995699999984
179,Ostrzeszow,17.938537499999768,51.43145899999985
180,Panki,18.749135499999795,50.89602099999985
181,Sierakow Slaski,18.59049799999977,50.80129099999985
182,Koszecin,18.83459549999978,50.62361249999984
183,Tworog,18.712215999999785,50.53149599999984
184,Klobuck,18.92302049999978,50.91068049999984
185,Leba,17.551998999999796,54.75745249999983
186,Lebork,17.753217999999777,54.53476999999984
187,Puck,18.407754499999783,54.716998499999846
188,Wladyslawowo,18.402241999999774,54.79103999999984
189,Kolobrzeg,15.569541499999788,54.18231099999983
190,Trzebiatow,15.277353499999776,54.060613499999846
191,Dygowo,15.72941899999978,54.14026849999985
192,Ustronie Morskie,15.749609999999793,54.20029099999985
193,Lubomino,20.23255249999977,54.06620649999985
194,Orneta,20.150848499999768,54.114512999999846
195,Dobre Miasto,20.38175549999977,53.98708849999983
196,Swietajno,21.229757999999777,53.56287499999985
197,Nowa Wies Elcka,22.31908649999977,53.76910099999984
198,Elk,22.35660699999977,53.831732499999845
199,Drygaly,22.105993499999784,53.68057899999985
200,Biala Piska,22.068371999999783,53.614929499999846
201,Nowogard,15.119125499999797,53.66530699999984
202,Mosty,14.943207499999772,53.576384999999846
203,Goleniow,14.839238999999791,53.55917199999985
204,Makowarsko,17.81826799999979,53.40405049999984
205,Koronowo,17.950891499999784,53.30742299999983
206,Tuchola,17.860239999999777,53.58351749999983
207,Ostroleka,21.615527999999784,53.05629799999983
208,Jadowniki,17.839494999999772,52.84947299999985
209,Znin,17.73633799999979,52.84894199999985
210,Ryczywol,16.835650999999785,52.80807049999984
211,Roznowo,16.87088849999978,52.67804399999983
212,Budzyn,16.966204499999776,52.89321099999984
213,Ostrow Mazowiecka,21.91023449999977,52.80750199999983
214,Czyzew,22.345489499999783,52.80088999999984
215,Lochow,21.690362999999792,52.53472499999984
216,Miedzychod,15.883678499999776,52.59820549999984
217,Przytoczno,15.669891999999775,52.58048549999984
218,Lukow,22.417336999999776,51.93030849999985
219,Radzyn Podlaski,22.66882149999978,51.82709999999983
220,Lubartow,22.60967799999977,51.44091749999984
221,Lesna,15.264303999999782,51.03458149999983
222,Zareba,15.217118999999798,51.09798149999983
223,Gieraltow,15.301739499999798,51.17413249999984
224,Olszyna,15.378468499999798,51.07021999999984
225,Czernica,16.226913499999796,51.00882149999984
226,Jawor,16.19488849999979,51.05609299999984
227,Goczalkow,16.328592499999786,51.006230499999845
228,Siedlecin,15.688900999999788,50.94445199999984
229,Sobotka,16.74365549999979,50.903864999999854
230,Jezow Sudecki,15.737560499999772,50.92451749999984
231,Jelenia Gora,15.772639999999797,50.89949199999984
232,Piechowice,15.59307149999978,50.851769999999846
233,Gryfow Slaski,15.427465999999782,51.036354499999845
234,Szczepanow,16.625568999999786,50.898641499999854
235,Pszenno,16.53027499999979,50.85636649999984
236,Studzieniec,21.05939749999979,54.20476049999985
237,Korsze,21.14286899999979,54.171226999999845
238,Szprotawa,15.541370499999772,51.56971599999983
239,Zagan,15.313725999999775,51.60446899999985
240,Malomice,15.446876999999771,51.54970299999985
241,Ustka,16.86754499999978,54.57411899999983
242,Slupsk,17.015864499999793,54.46792999999983
243,Wolin,14.602867499999777,53.84912999999983
244,Busko Zdroj,20.685287999999787,50.46220399999984
245,Chmielnik,20.73281299999977,50.60804249999984
246,Kielce,20.616922999999787,50.872389999999854
247,Piekoszow,20.44598949999977,50.87108849999984
248,Wolica,20.472864999999786,50.75284499999984
249,Jedrzejow,20.274401499999783,50.64334849999983
250,Czastary,18.333875999999776,51.27442349999984
251,Biala,18.422935499999795,51.26333599999984
252,Czestochowa,19.12114749999978,50.80901249999985
253,Krzepice,18.694891999999783,50.97033249999984
254,Boronow,18.90020649999977,50.66702899999984
255,Wieliczka,20.05192699999978,49.98755149999985
256,Krakow Glowny,19.9472514999998,50.06573849999984
257,Kokotow,20.061745499999773,50.017551499999854
258,Goleszow Gorny,18.748655499999785,49.74669849999984
259,Ustron,18.817477999999795,49.72022999999984
260,Skoczow,18.787842499999783,49.79135899999983
261,Bazanowice,18.697176999999783,49.73420999999985
262,Jordanow,19.831098999999767,49.63676599999985
263,Rabka Zdroj,19.952175499999782,49.61054449999983
264,Wieliszew,21.012587999999766,52.45482449999983
265,Nieporet,21.04367149999979,52.42942349999984
266,Michalow,20.96257349999979,52.42175249999983
267,Czerwiensk,15.416048499999787,52.01426649999985
268,Nietkowice,15.3591844999998,52.05299049999985
269,Przylep,15.438639999999792,51.97837749999985
270,Chelmek,19.26523599999979,50.10797599999984
271,Libiaz,19.32308099999977,50.11387499999984
272,Oswiecim,19.198849499999767,50.04082299999985
273,Chrzanow,19.40187949999978,50.13576749999984
274,Jezewo,18.4890274999998,53.507355499999846
275,Osie,18.34227549999977,53.59482049999983
276,Czersk,17.97199299999977,53.80078099999983
277,Czarna Woda,18.10920749999977,53.85136699999984
278,Warlubie,18.620146499999777,53.58506199999985
279,Pruszcz Pomorski,18.197023499999773,53.33350399999984
280,Kobylany,23.56410999999977,52.039142999999854
281,Terespol,23.602714499999763,52.07742249999984
282,Malaszewicze,23.52758499999979,52.02634899999984
283,Bialowieza,23.86826199999979,52.69161599999984
284,Hajnowka,23.58489549999979,52.73173049999983
285,Kobylin,17.22123849999977,51.72004299999983
286,Krotoszyn,17.426099499999793,51.70161249999984
287,Pepowo,17.112987999999774,51.73690249999984
288,Siewierz,19.23799649999978,50.479861499999856
289,Poreba,19.331959999999786,50.48405749999984
290,Miasteczko Slaskie,18.8998029999998,50.49549599999983
291,Dabrowa Bialostocka,23.36596149999977,53.64667699999984
292,Piotrkow Trybunalski,19.684376499999782,51.40800249999984
293,Moszczenica,19.699644999999776,51.50158749999983
294,Olesno Slaskie,18.42510999999979,50.88202649999985
295,Bakow,18.311388999999792,50.95696949999984
296,Zarki,19.273312499999776,50.62274549999984
297,Myszkow,19.32293599999977,50.57612899999984
298,Koniecpol,19.701143499999773,50.77655549999983
299,Wozniki,19.45589349999977,49.962097999999855
300,Wadowice,19.502895499999767,49.88361499999985
301,Bystra Podhalanska,19.79744649999978,49.64594549999984
302,Wielowies,21.758527999999785,50.62161849999984
303,Grebow,21.836247999999784,50.60364699999985
304,Tarnobrzeg,21.697603499999783,50.56992799999984
305,Sandomierz,21.766134499999765,50.66350599999984
306,Olkusz,19.57604299999977,50.27351899999985
307,Kowalew,17.73441699999978,51.89158249999983
308,Kotlin,17.65012999999979,51.91438099999985
309,Jedlnia-Letnisko,21.33664449999977,51.43089799999984
310,Pionki,21.46729049999979,51.48004049999983
311,Rajec Poduchowny,21.281864499999784,51.42578199999983
312,Zabkowice Slaskie,16.81196399999979,50.59784349999984
313,Pilawa Gorna,16.773564499999793,50.67892049999983
314,Kamieniec Zabkowicki,16.900525999999786,50.53650599999983
315,Twardogora,17.467937999999776,51.360336999999845
316,Miedzyborz Sycowski,17.65243749999979,51.40116199999983
317,Grabowno Wielkie,17.403718999999796,51.34305449999985
318,Skawina,19.82079699999977,49.97699949999984
319,Rzozow,19.80424949999977,49.94474649999984
320,Lencze,19.75509199999979,49.899387999999846
321,Kalwaria Zebrzydowska,19.623962499999777,49.867158999999845
322,Andrychow,19.34853499999977,49.85294449999984
323,Warszawa Zachodnia,20.963922999999767,52.21897499999983
324,Piaseczno,21.01788099999979,52.06600549999985
325,Opacz,20.91621399999977,52.20671449999983
326,Warszawa Gdanska,20.98114499999977,52.259033499999845
327,Warszawa Srodmiescie,21.003011999999785,52.22832699999984
328,Szubin,17.744861999999785,53.00201899999985
329,Kcynia,17.50236149999978,52.99770399999983
330,Rynarzewo,17.812618499999786,53.07338449999983
331,Zarzecze,19.69574399999979,50.36153199999984
332,Sanok,22.21361449999977,49.55156799999983
333,Zagorz,22.260790999999784,49.50940949999983
334,Nowosielce,22.08859699999977,49.561656499999856
335,Nowogrod Bobrzanski,15.244396999999791,51.81186849999983
336,Ilowa Zaganska,15.188257999999792,51.50094049999984
337,Lubin,16.19313349999979,51.39409299999983
338,Rzeszotary,16.16606399999978,51.24906199999984
339,Grebocice,16.181880999999777,51.59602599999985
340,Scinawa,16.42041549999979,51.40970399999984
341,Narewka,23.73560249999977,52.86765849999984
342,Kleszczele,23.329955999999783,52.56068499999984
343,Strumien,18.751198499999788,49.914130999999855
344,Drogomysl,18.78531499999977,49.89030599999984
345,Zory,18.702106999999785,50.05266949999984
346,Pruchna,18.682610499999782,49.878235999999845
347,Tarnowskie Gory,18.86361199999979,50.44491499999984
348,Zabrze,18.784197999999776,50.30523399999984
349,Chorzow Miasto,18.95231949999979,50.299454499999854
350,Swietochlowice,18.91931999999977,50.28840549999984
351,Zielona Gora,15.496558999999792,51.94818549999985
352,Komprachcice,17.82081199999979,50.63139949999984
353,Opole Glowne,17.93400699999978,50.65706499999985
354,Szydlow,17.706842499999794,50.60636049999985
355,Lewin Brzeski,17.616236999999785,50.75780399999985
356,Jaslany,21.468486999999783,50.39971349999985
357,Padew,21.50416299999977,50.43251099999984
358,Mielec,21.429322499999785,50.29334949999984
359,Tarchaly Wielkie,17.699022999999784,51.586445499999854
360,Topola Osiedle,17.761354499999783,51.61289899999983
361,Odolanow,17.667692499999788,51.57440549999984
362,Stryszow,19.62163899999979,49.82547649999984
363,Sliwice,18.18275749999978,53.71114999999983
364,Serock,18.08837349999979,53.35857399999984
365,Brodnica,19.404408999999788,53.26265749999985
366,Lidzbark Dzialdowski Miasto,19.824259499999783,53.25907549999985
367,Rypin,19.42771399999978,53.06901949999983
368,Jablonowo Pomorskie,19.15997349999978,53.39269299999984
369,Swiebodzice,16.337837999999778,50.85451449999985
370,Boguszow Gorce Wschod,16.198298499999794,50.75136899999984
371,Jaworzyna Slaska,16.428883999999783,50.91279949999984
372,Jedlina Zdroj,16.325470499999795,50.72530349999985
373,Bilgoraj,22.728494499999783,50.550726499999854
374,Dabrowica,22.661092499999768,50.54284899999985
375,Zwierzyniec,22.99457099999978,50.59286849999984
376,Runowo Krajenskie,17.427126999999786,53.31635249999985
377,Rajgrod,17.44995949999978,53.26317799999984
378,Wiecbork,17.471282999999772,53.34715349999985
379,Przeciszow,19.37128199999978,50.01253849999984
380,Zator,19.427276499999778,50.00245649999985
381,Szklarska Poreba Gorna,15.520476999999772,50.83230399999985
382,Wrzesnia,17.55527349999977,52.32835699999984
383,Czerniejewo,17.565028499999784,52.42224649999983
384,Miloslaw,17.476647499999785,52.20767099999984
385,Swarzedz,17.073609499999776,52.40410249999985
386,Strzalkowo,17.806772499999795,52.31063049999983
387,Nowe Skalmierzyce,18.000061499999788,51.71204049999983
388,Kalisz,18.06823849999978,51.74154499999983
389,Czarnocin,19.724661999999768,51.59621399999983
390,Tomaszow Mazowiecki,20.034005999999778,51.545888999999846
391,Rogow,19.884553499999782,51.81673649999985
392,Byczyna,18.19937299999978,51.11564399999983
393,Gomunice,19.482861499999785,51.14903049999984
394,Kamiensk,19.49240049999977,51.182052499999855
395,Radomsko,19.437697499999786,51.075078999999846
396,Kluczbork,18.143345499999786,50.99260649999985
397,Wolczyn,18.04465849999977,51.01373949999984
398,Klomnice,19.34506599999977,50.92990699999984
399,Rzerzeczyce,19.328333499999783,50.897324499999854
400,Witkow Slaski,16.127325499999785,50.79371049999983
401,Unislaw,16.22406399999977,50.71152699999985
402,Rybnik,18.548960999999792,50.089631499999854
403,Orzesze,18.776742499999784,50.15358149999983
404,Sumina,18.431546999999767,50.122921999999846
405,Wodzislaw Slaski,18.47556199999977,50.00526599999984
406,Paczyna,18.56973199999979,50.41360049999983
407,Pyskowice,18.616506999999785,50.38540549999985
408,Knurow,18.68476349999977,50.21746549999983
409,Brzeznica,19.629625499999776,49.96688149999983
410,Spytkowice,19.47967749999978,49.99534599999984
411,Dwikozy,21.79146449999979,50.73332599999984
412,Cmielow,21.528329999999784,50.88821899999985
413,Grybow,20.954781999999767,49.62462749999983
414,Ptaszkowa,20.883947999999776,49.60206199999985
415,Silno,17.693077999999787,53.64432549999984
416,Chojnice,17.57629149999977,53.68828899999983
417,Wolsztyn,16.106086499999776,52.11332699999983
418,Widzim Stary,16.16370999999978,52.06101949999984
419,Rostarzewo,16.20240949999979,52.134918999999854
420,Rakoniewice,16.26466549999978,52.13856449999983
421,Ruchocice,16.341469999999788,52.17681499999984
422,Gostyn,17.008228499999774,51.88370449999985
423,Kakolewo,16.68397349999978,51.85764849999984
424,Strumiany,17.229056499999786,51.91972849999985
425,Stanowice,16.374968999999794,50.92954949999984
426,Kadlub,18.281240499999768,50.602141499999846
427,Rozmierka,18.27642149999977,50.56246149999984
428,Skoroszyce,17.375367499999783,50.59347549999984
429,Nysa,17.341875499999787,50.47727499999985
430,Chroscina Nyska,17.379603999999773,50.62982449999984
431,Zawiercie,19.423513499999785,50.47925049999984
432,Skrzydlna,20.18670349999977,49.72739549999983
433,Mszana Dolna,20.077155499999776,49.67305349999984
434,Dobra k/Limanowej,20.250887999999776,49.72408849999985
435,Raba Nizna,20.02160299999977,49.63427449999983
436,Wroblik Szlachecki,21.90318699999977,49.60517199999984
437,Krosno,21.750775499999776,49.69321549999984
438,Dlugie,22.047020999999773,49.578497499999855
439,Czaszyn,22.22052899999977,49.45988899999983
440,Jankowce,22.39936499999979,49.46503299999984
441,Ustrzyki Dolne,22.59757099999979,49.42885699999985
442,Rzepedz,22.112840999999776,49.37389949999985
443,Biskupiec Reszelski,20.95652899999979,53.86804199999983
444,Mragowo,21.297516499999773,53.85869649999984
445,Barczewo,20.712531999999783,53.84818849999985
446,Dzialdowo,20.168166999999784,53.237892499999845
447,Janowiec Wielkopolski,17.485982999999777,52.754417999999845
448,Damaslawek,17.497149999999777,52.84258149999985
449,Murowana Goslina,17.016088499999796,52.57536649999983
450,Skoki,17.161872999999787,52.67351649999984
451,Gniezno,17.601114999999794,52.52948199999983
452,Sulikow,15.0655964999998,51.07924249999985
453,Klyzow,22.178424999999777,50.537375499999854
454,Mscice,16.073106999999794,54.21421899999984
455,Karlino,15.883821499999785,54.04483199999984
456,Bialogard,15.977734999999797,54.01268149999984
457,Morag,19.924525999999787,53.91874549999983
458,Maldyty,19.73498049999978,53.92151499999983
459,Jonkowo,20.302993499999783,53.81550549999983
460,Chludowo,16.824742499999786,52.56180949999984
461,Radzymin,21.177111999999767,52.42408399999985
462,Leczyca,19.193276999999767,52.04937799999985
463,Gostynin,19.47606749999977,52.432269999999846
464,Chodecz,19.10569449999977,52.46330549999985
465,Ozorkow,19.26500749999977,51.97569649999983
466,Klodawa,18.89145899999977,52.22728149999983
467,Kutno,19.428613499999784,52.228244999999845
468,Strykow,19.59389799999977,51.91075349999983
469,Kozmin Wielkopolski,17.443536499999794,51.83255999999983
470,Biadki,17.566548499999783,51.67716549999983
471,Zduny,17.36664449999978,51.64659099999983
472,Wielun,18.58443749999978,51.22183699999985
473,Wielun Dabrowa,18.553932999999773,51.23937299999983
474,Gieraltow Wykroty,15.285746999999787,51.21439649999985
475,Wegliniec,15.224484999999788,51.29019899999983
476,Mikolow,18.896803499999777,50.17141649999985
477,Tychy,18.964072999999782,50.13673549999984
478,Gieraltowice,18.738074499999783,50.23559749999984
479,Chojnik,20.99194999999977,49.85191999999984
480,Gromnik,20.96047649999977,49.83303599999985
481,Lowczowek Plesna,20.952302999999773,49.92283799999984
482,Bobowa,20.956725499999777,49.715880999999854
483,Stroze,20.973851499999768,49.65678199999985
484,Bogoniowice-Ciezkowice,20.976520999999792,49.79801949999984
485,Trzcianka,16.464092499999794,53.03226999999984
486,Jastrowie,16.796730499999796,53.40678049999983
487,Chodziez,16.909879999999788,52.99307449999984
488,Kaczory,16.883816999999794,53.10474299999984
489,Krajenka,16.989821999999776,53.28797799999984
490,Walcz,16.484982999999772,53.27461599999984
491,Naklo nad Notecia,17.60113199999978,53.14117749999983
492,Bialosliwie,17.12238099999979,53.09709549999985
493,Slesin,17.696118999999783,53.15587049999985
494,Ciechanowice,15.916736499999786,50.87829799999983
495,Czluchow,17.37204399999979,53.65842249999983
496,Czarne,16.93724499999979,53.67970449999984
497,Zlocieniec,16.01431649999978,53.52887349999983
498,Czaplinek,16.24229299999979,53.53835699999985
499,Drawsko Pomorskie,15.827633499999791,53.52355699999984
500,Grudziadz,18.7605734999998,53.48224599999983
501,Sadlinki,18.87867799999978,53.66541449999983
502,Chelmza,18.59882649999977,53.18427949999983
503,Okonek,16.828019499999783,53.51626199999984
504,Grebocin,18.68420949999978,53.04728099999983
505,Aleksandrow Kujawski,18.69747149999978,52.87496399999984
506,Lysomice,18.618766999999792,53.08232799999985
507,Lubicz,18.75130999999979,53.02689949999984
508,Solec Kujawski,18.228464999999773,53.07769149999984
509,Kowalewo Pomorskie,18.867429999999786,53.16251999999983
510,Gniewkowo,18.402195499999777,52.88739849999985
511,Wyszkow,21.44597399999978,52.59988549999983
512,Wapno,17.47696149999979,52.90781249999984
513,Brzezie,18.930503999999782,52.71905349999983
514,Golina,17.459469499999784,51.90640299999984
515,Garbatka-Letnisko,21.630960999999783,51.49540599999983
516,Namyslow,17.716252999999796,51.07458499999984
517,Wilkow,17.658488499999777,51.094171499999845
518,Legnica,16.167223999999777,51.21335599999984
519,Swidnica Miasto,16.482226999999796,50.83724949999984
520,Zarow,16.491832999999787,50.93907849999985
521,Imielin,19.175356999999792,50.14387099999985
522,Ledziny,19.12351449999977,50.129552499999846
523,Bierun,19.13087799999977,50.09637249999983
524,Jezowka,19.87726749999979,50.39496949999983
525,Wolbrom,19.771885999999768,50.376295499999856
526,Klimontow,20.02885299999977,50.52304999999984
527,Miechow,20.01173149999977,50.35606299999984
528,Kwidzyn,18.93449849999979,53.733017499999846
529,Ryjewo,18.956943499999795,53.84281899999985
530,Pelplin,18.70620299999979,53.92621099999985
531,Prabuty,19.209248499999774,53.75883599999983
532,Ogorzeliny,17.54733349999978,53.60296199999985
533,Brusy,17.728827999999794,53.88429299999984
534,Rytel,17.723578999999773,53.74751349999983
535,Zakrzewo Zlotowskie,17.14236749999978,53.41701499999985
536,Szczecinek,16.706492999999796,53.69403099999983
537,Wegorzyno,15.568320499999771,53.54301449999983
538,Chociwel,15.3352404999998,53.47072399999985
539,Lobez,15.626481999999784,53.63529649999984
540,Witnica,14.897516499999796,52.66746299999983
541,Gorzow Wielkopolski,15.225419999999788,52.726927499999846
542,Kostrzyn,14.6456349999998,52.58899749999984
543,Wschowa,16.317845999999776,51.79421449999984
544,Lipno Nowe,16.565494499999772,51.84595349999984
545,Glogow,16.07770099999979,51.67015199999983
546,Leszno,16.618648999999778,51.86008599999985
547,Pawlowice,16.759484999999785,51.81896199999983
548,Krobia,16.96910699999978,51.75913299999985
549,Poniec,16.80683449999978,51.76165399999985
550,Pokrzywnica,18.07678999999979,50.343743999999845
551,Rudziniec Gliwicki,18.398917499999783,50.36664699999983
552,Zdzieszowice,18.125471499999776,50.42254899999983
553,Bierawa,18.25523149999978,50.29549749999984
554,Szybowice,17.48218849999978,50.34407249999984
555,Paczkow,17.01367499999978,50.47842299999985
556,Otmuchow Jezioro,17.152664999999786,50.474372499999845
557,Miasteczko Krajenskie,17.017694499999777,53.09250299999985
558,Wloclawek,19.04002849999977,52.66728049999983
559,Zlotniki,16.83587099999977,52.49540599999983
560,Czerniewice,19.090866499999777,52.547025999999846
561,Zydowo,17.568300999999792,52.45261149999985
562,Zabki,21.11537149999978,52.29332499999984
563,Warszawa Wschodnia,21.052521499999784,52.25105749999983
564,Zielonka,21.15537449999977,52.31106999999983
565,Kornik,17.101554499999793,52.28277099999983
566,Sroda Wielkopolska,17.27589599999979,52.21745949999985
567,Poznan Glowny,16.912968999999777,52.40316049999984
568,Orzechowo,17.477907499999787,52.12728449999983
569,Krzywda,22.200625499999774,51.79268999999985
570,Siedlce,22.27039549999978,52.16265599999983
571,Gora,17.370193499999772,51.95530599999984
572,Chocicza,17.350851999999776,52.06950299999983
573,Radlin,17.498873999999773,52.03493899999984
574,Sieradz,18.70993249999978,51.59762299999983
575,Dzialoszyn,18.914857499999783,51.14197099999984
576,Lask,19.1144324999998,51.603514999999845
577,Ryki,21.94523449999977,51.606516999999855
578,Deblin,21.83943199999979,51.57477049999983
579,Blaszki,18.469535999999778,51.67510349999984
580,Kozienice,21.46221999999977,51.65914199999983
581,Bukowice Trzebnickie,17.368131999999775,51.40023399999984
582,Katy Wroclawskie,16.825354499999776,51.056073499999854
583,Brzeg Dolny,16.725436999999772,51.26678499999983
584,Sroda Slaska,16.613755999999796,51.18947849999984
585,Rudniki k/Czestochowy,19.22586849999979,50.87719399999983
586,Cykarzew Stary,19.16621699999979,50.95543199999983
587,Lubawka,16.002223499999786,50.70428099999984
588,Marciszow,16.01257199999978,50.84807899999984
589,Lazy,19.39103399999979,50.42938099999984
590,Kuznia Raciborska,18.29842899999977,50.20067749999984
591,Niepolomice,20.1635924999998,50.051270499999845
592,Stanislawice,20.356041499999776,49.991580999999854
593,Wegrzyce Wielkie,20.103710999999777,50.01845649999984
594,Slomniki,20.06397849999979,50.24849399999985
595,Czyzowice,18.42284099999977,49.973614499999854
596,Tarnow Opolski,18.071237499999768,50.57546149999985
597,Chrzastowice,18.07332949999977,50.660314999999855
598,Gorazdze,18.00357249999979,50.52768399999985
599,Psary,19.817658499999794,50.73411099999984
600,Szalowa,21.00770149999977,49.67767949999984
601,Nowy Sacz,20.70440949999977,49.60731299999984
602,Chelmiec,20.67410649999977,49.64130949999984
603,Stary Sacz,20.642953999999776,49.55952299999984
604,Kepice,16.890694999999795,54.24212599999984
605,Miastko,16.96472399999979,53.99934149999984
606,Sycewice,16.853042999999786,54.41477149999983
607,Lipusz,17.78041749999977,54.09635199999983
608,Dziemiany,17.77687499999979,54.01383699999983
609,Koscierzyna,17.99417699999978,54.12047349999983
610,Olsztynek,20.296026999999786,53.58634449999983
611,Ostroda,19.956984999999776,53.700405999999845
612,Bialy Bor,16.855434499999774,53.89056599999984
613,Siedliska,21.92726099999979,53.99958649999985
614,Wydminy,22.03529299999977,53.97496999999984
615,Gizycko,21.78695099999979,54.02928099999983
616,Zlotow,17.053377999999782,53.35942599999984
617,Recz,15.552276999999776,53.27058549999984
618,Kalisz Pomorski,15.881682499999783,53.27705799999984
619,Stargard Szczecinski,15.035279999999773,53.33349649999985
620,Czernikowo,18.955349999999783,52.93868849999984
621,Lipno,19.17844199999979,52.854032499999846
622,Skepe,19.3401734999998,52.87215299999983
623,Sierpc,19.65645349999977,52.84718399999983
624,Bielsk Podlaski,23.188441499999783,52.76068049999984
625,Bialystok,23.13604049999978,53.13417199999984
626,Zawidz Koscielny,19.87915499999977,52.82378899999984
627,Raciaz,20.10322549999978,52.77902549999985
628,Wagrowiec,17.201886999999772,52.80934999999985
629,Golancz,17.30510549999977,52.94736949999984
630,Baboszewo,20.25776699999977,52.683800999999846
631,Gozdowo,19.695291999999768,52.73021549999984
632,Plock,19.711544999999774,52.55274299999985
633,Steszew,16.70914799999977,52.28004599999983
634,Strykowo,16.613925499999795,52.24328699999984
635,Puszczykowo,16.871422999999794,52.29627149999985
636,Czerwonak,16.97952749999979,52.46819949999983
637,Kobylnica,17.07672599999978,52.44498099999984
638,Granowo Nowotomyskie,16.531774999999783,52.22516599999983
639,Grodzisk Wielkopolski,16.364642499999775,52.22985549999984
640,Smigiel,16.335752999999784,51.960458499999845
641,Wielichowo,16.30031249999979,51.99272899999983
642,Chojnow,15.93619849999979,51.27774049999985
643,Sulow,22.330630499999785,50.90129699999983
644,Krasnik,22.284688999999787,50.92895599999983
645,Rzeczyca Ziemianska,22.20157299999977,50.83593199999984
646,Niedrzwica Koscielna,22.361081999999783,51.08193549999984
647,Mieroszow,16.193743499999783,50.670187999999854
648,Nisko,22.10520749999978,50.52606749999984
649,Susiec,23.22377949999978,50.41834799999984
650,Belzec,23.412426499999786,50.37740949999983
651,Strzyzow n/Wislokiem,21.798949499999765,49.86941599999983
652,Wisniowa,21.65342949999979,49.86663049999984
653,Frysztak,21.619734499999765,49.829187999999846
654,Jedlicze,21.64812249999977,49.71899949999985
655,Tarnowiec,21.577084499999785,49.736007999999856
656,Mikolajki,21.58583349999978,53.810084499999846
657,Orzysz,21.938092499999783,53.80337149999983
658,Baranowo,21.44740749999977,53.82001549999984
659,Kamien Krajenski,17.542273499999794,53.52580449999985
660,Sepolno Krajenskie,17.54011399999979,53.45640849999984
661,Wola Baranowska,21.556347999999787,50.469944499999855
662,Staszow,21.158458499999767,50.55204549999985
663,Werbkowice,23.769221499999787,50.74589099999983
664,Zamosc,23.241860999999773,50.71359699999985
665,Chmielow,21.65462249999979,50.51261349999984
666,Skopanie,21.59160449999979,50.475531499999846
667,Rzemien,21.507097499999787,50.218356999999855
668,Pustkow,21.49599149999977,50.145443999999856
669,Sokolka,23.507806499999788,53.40327849999983
670,Tychowo,16.237867499999794,53.92112449999985
671,Nidzica,20.41442549999977,53.35628199999985
672,Legionowo,20.929670499999787,52.40793749999983
673,Lowicz,19.93799549999977,52.09100999999984
674,Glowno,19.702929499999783,51.96256749999984
675,Niedzwiada,19.88565799999978,52.140190999999845
676,Milicz,17.295327999999785,51.52595549999984
677,Krosnice,17.37374699999978,51.47127899999984
678,Zbydniow,21.91914999999977,50.635323999999855
679,Belsznica,18.373035499999787,49.97323649999984
680,Zembrzyce,19.587689499999783,49.77698549999985
681,Pogorze,18.82931999999977,49.81025399999984
682,Bielsko-Biala Glowna,19.045822499999787,49.82938149999984
683,Sucha Beskidzka,19.57932699999978,49.74009949999984
684,Makow Podhalanski,19.6791054999998,49.72653649999984
685,Zebrzydowice,18.6193854999998,49.87141499999984
686,Pawel Wielki,19.379617499999767,49.668914999999856
687,Jelesnia,19.279071499999787,49.66713249999984
688,Lachowice,19.43517449999979,49.70824399999984
689,Ketrzyn,21.382853499999783,54.07278199999985
690,Raczyce,20.87716999999978,50.57520899999983
691,Jaslo,21.46999849999977,49.73731899999984
692,Kleczany,20.564445499999778,49.682416999999845
693,Ruszow,15.176237999999785,51.40036449999985
694,Karsin,17.930069499999775,53.89579999999984
695,Jedlina,16.353088999999784,50.690934999999854
696,Medyka,22.95124549999977,49.80619249999984
697,Przemysl Glowny,22.78087799999977,49.78383199999985
698,Tolkmicko,19.5284049999998,54.32433249999983
699,Elblag,19.41806349999979,54.150659999999846
700,Bydgoszcz Glowna,17.99638699999977,53.13710199999983
701,Nowa Wies Wielka,18.09619349999977,52.968394999999845
702,Radom,21.156403499999783,51.39161899999985
703,Miedzno,18.943975499999794,51.01392299999984
704,Wilkowo,15.474041499999773,52.25511799999984
705,Niedrzwica,22.382870999999767,51.11985299999984
706,Kreznica Jara,22.464293999999768,51.15305249999983
707,Lubaczow,23.12605749999977,50.165981499999845
708,Horyniec Zdroj,23.354147999999785,50.194255499999855
709,Zywiec,19.184935499999767,49.67792849999984
710,Lipa,22.06774599999977,50.69338949999985
711,Limanowa,20.421532499999785,49.71359149999984
712,Zawada,23.12706449999979,50.717099999999846
713,Pisarzowa,20.48023349999977,49.69589049999985
714,Mecina,20.533799499999787,49.69064099999986
715,Krasnystaw,23.18375049999977,50.98041849999984
716,Goswinowice,17.257181499999774,50.47937549999983
717,Stare Kurowo,15.675685499999789,52.85421899999983
718,Wawrow,15.312285999999771,52.72872949999984
719,Dobiegniew,15.746005999999795,52.96871049999984
720,Rydzyna,16.64620899999977,51.77147199999985
721,Stare Bojanowo,16.584385499999797,51.99488099999985
722,Gluszyca,16.358066999999778,50.678450499999855
723,Nowa Ruda,16.51127249999979,50.58734699999985
724,Glucholazy,17.394148499999773,50.32872949999984
725,Zerkow,17.49781699999977,52.06849599999984
726,Sulkowice,21.09368199999977,51.92401199999984
727,Gora Kalwaria,21.191381999999777,51.98881349999985
728,Tarczyn,20.828307499999767,51.968661499999854
729,Opatowek,18.22337749999977,51.74356849999984
730,Ruda Wielka,21.04289449999979,51.29972749999985
731,Siemianowice Slaskie,19.029822999999794,50.30121699999984
732,Bedzin,19.142953499999777,50.30657549999984
733,Plonsk,20.367213499999792,52.61578699999984
734,Nasielsk,20.76791049999977,52.57333049999983
735,Swidnik,22.68523099999979,51.22542949999985
736,Naleczow Waskotorowy,22.21288199999978,51.31832599999984
737,Turbia,21.97074399999977,50.61809849999983
738,Stalowa Wola,22.059884499999782,50.56390749999983
739,Brzeg,17.47297549999979,50.85214799999983
740,Bardo,16.82004649999979,50.52953649999984
741,Gorzanow,16.640811999999784,50.353030499999846
742,Strzelce Opolskie,18.30448899999979,50.51730499999985
743,Lubycza Krolewska,23.53370199999977,50.33474649999985
744,Kosewo,21.379134999999792,53.83165149999985
745,Brzozowiec,15.368840999999776,52.65292699999984
746,Debica,21.405487999999792,50.05415149999985
747,Paslek,19.656627499999782,54.05638349999984
748,Tluszcz,21.43131999999977,52.42885549999983
749,Zagosciniec,21.313410499999776,52.37892549999984
750,Chotomow,20.884436999999792,52.41540599999985
751,Katowice,19.00000899999978,50.26049199999983
752,Kety,19.226891499999795,49.88084199999983
753,Rzezawa,20.51270299999979,49.98454099999984
754,Wola Rzedzinska,21.065060499999788,50.03398099999984
755,Zorawina,17.048923499999773,50.98087749999985
756,Swieta Katarzyna,17.123008999999797,51.02967699999985
757,Pegow,16.92616499999977,51.24846599999984
758,Zblewo,18.26021499999979,53.93018249999983
759,Kaliska,18.21654399999977,53.90328249999985
760,Warka,21.16907099999977,51.79339699999983
761,Kunow,21.29572799999977,50.96768049999983
762,Starachowice,21.055023999999776,51.052741499999854
763,Ostrowiec Swietokrzyski,21.378153999999768,50.93372349999984
764,Ruda Lancucka,22.364736999999764,50.30322449999983
765,Lezajsk,22.416752999999773,50.26916699999984
766,Letownia,22.25939749999978,50.36158949999984
767,Wierzawice,22.46377149999978,50.239745499999856
768,Kobior,18.92351749999977,50.06665099999984
769,Kalety,18.886540499999768,50.57048899999984
770,Strzebin,18.899483999999774,50.61837299999985
771,Budachow,15.084754499999775,52.15025949999984
772,Rzepin,14.81600549999979,52.35004649999985
773,Krzeszowice,19.632131499999787,50.131158499999856
774,Lancut,22.26457049999979,50.08272849999983
775,Bochnia,20.438169499999788,49.97762049999983
776,Lodygowice,19.140506999999783,49.725594999999856
777,Wegierska Gorka,19.14770249999978,49.61798499999984
778,Bystrzyca Klodzka,16.653562499999794,50.29505699999984
779,Dlugopole Zdroj,16.635682499999774,50.24149549999984
780,Reguly,20.85173549999979,52.19913099999985
781,Warszawa Ursus,20.883089499999784,52.19596499999983
782,Gliwice,18.6761104999998,50.301142499999855
783,Wabrzezno,18.98362449999979,53.26632099999984
784,Ksiazki,19.06608999999977,53.32861949999983
785,Dolice,15.20975249999978,53.19856199999984
786,Gryfino,14.51004599999979,53.28206649999984
787,Kotun,22.066269999999776,52.17575399999984
788,Dopiewo,16.67919599999979,52.35361899999984
789,Warszawa Praga,21.021422499999773,52.27849849999984
790,Wesola,21.22487049999978,52.25403649999984
791,Jozefow,21.21132149999977,52.16140349999984
792,Gorzyca,14.657973499999798,52.49911999999984
793,Boleszkowice,14.517729999999773,52.73795049999984
794,Zwardon,18.97345299999978,49.50384949999983
795,Rycerka,19.08153999999979,49.49929799999984
796,Kuznica Bialostocka,23.643805499999782,53.51479999999984
797,Gronowo Elblaskie,19.30189249999978,54.08846699999984
798,Opalenica,16.404803999999785,52.31036199999983
799,Nowy Tomysl,16.129498999999782,52.30412799999985
800,Buk,16.52649649999978,52.345015499999846
801,Chrzesne,21.470136499999768,52.44481399999984
802,Torzym,15.059621999999791,52.31209849999985
803,Wilkasy,22.641159499999787,53.98538349999984
804,Prostki,22.429214499999773,53.69819849999985
805,Grajewo,22.44833399999979,53.649534499999845
806,Trzebinia,19.4539159999998,50.15401749999984
807,Wachock,21.01590899999977,51.08008949999984
808,Kamien Slaski,18.11943949999977,50.55220699999984
809,Szymiszow,18.221222499999783,50.529262499999845
810,Stare Juchy,22.173994499999765,53.92415899999983
811,Strzebielino Morskie,18.032089999999783,54.56235499999983
812,Zyrardow,20.446927999999787,52.05181749999983
813,Grodzisk Mazowiecki,20.63052099999979,52.11291249999985
814,Skierniewice,20.15928249999979,51.96994699999985
815,Bodzechow,21.43373949999977,50.91394749999984
816,Monki,22.79631249999977,53.40167999999983
817,Knyszyn,22.84973199999979,53.32233699999984
818,Goniadz,22.731387499999784,53.45960049999985
819,Krypno Wielkie,22.89423899999977,53.28587399999984
820,Szydlowiec,20.94726499999979,51.22378099999983
821,Skorkow,20.208522499999788,50.858756999999855
822,Malogoszcz,20.27623699999978,50.84996849999985
823,Wloszczowa,20.01399299999977,50.83749499999985
824,Brzeszcze,19.159962999999777,49.99775449999984
825,Jawiszowice,19.12838999999977,49.97195699999983
826,Milanowek,20.66542249999977,52.12457899999984
827,Grzybowa Gora,20.96640499999978,51.11339049999984
828,Zagnansk,20.66388649999979,50.97461199999984
829,Dankowice,19.09676799999977,49.94189999999983
830,Czechowice-Dziedzice,18.974188999999768,49.937827499999855
831,Oborniki Slaskie,16.907407999999776,51.29777249999984
832,Pruszkow,20.800045499999783,52.16875349999984
833,Brwinow,20.719678499999787,52.14249349999983
834,Widuchowa,14.446113499999797,53.12395499999985
835,Chojna,14.447232499999783,52.95941449999984
836,Nowa Sol,15.70891999999978,51.79861299999985
837,Niedoradz,15.66440849999978,51.86538549999983
838,Bytom Odrzanski,15.820884999999777,51.72629149999983
839,Czerna,15.883534499999795,51.70258349999983
840,Toszek,18.5126224999998,50.44188249999985
841,Malczyce,16.485440499999783,51.21571899999984
842,Sedziszow Malopolski,21.696988499999776,50.07542299999983
843,Stary Wegliniec,15.1913169999998,51.29125449999984
844,Sochaczew,20.23764799999978,52.21480099999985
845,Myslakow,20.01850849999977,52.09292749999983
846,Blonie,20.60968399999979,52.18630149999984
847,Chotylow,23.355168499999763,51.99644449999985
848,Dobrynka,23.443259999999785,51.99834599999983
849,Biala Podlaska,23.126551999999776,52.02012999999985
850,Borek Strzelinski,17.024603999999783,50.87938299999985
851,Sedziszow,20.08449599999977,50.57654399999984
852,Szczekociny,19.84343949999979,50.63155149999983
853,Goscicino,18.160748499999784,54.60492799999983
854,Wejherowo,18.223682499999768,54.60632499999983
855,Luzino,18.1041099999998,54.56725999999984
856,Dobrzyniewo-Duze,22.994190999999773,53.19733799999983
857,Fasty,23.025868999999773,53.17582899999985
858,Lapy,22.88552999999979,52.99103099999985
859,Rajcza,19.10642349999977,49.53191799999985
860,Domaszkow,16.65647999999979,50.21101649999983
861,Miedzylesie,16.65521499999977,50.14554149999984
862,Wierzchoslawice,18.3564839999998,52.86721949999984
863,Staporkow,20.57424599999979,51.14327049999983
864,Konskie,20.421509499999782,51.19221649999983
865,Blizyn,20.758651499999782,51.11000749999985
866,Rumia,18.38715549999978,54.56849299999985
867,Reda,18.347978999999786,54.59954649999983
868,Zukowo,18.376976499999785,54.35060949999985
869,Sopot,18.56217499999977,54.44070049999985
870,Pruszcz Gdanski,18.647088499999768,54.23673749999983
871,Pszczolki,18.68273899999977,54.18440199999984
872,Swidwin,15.773337999999796,53.78237949999985
873,Lipinki,19.3186044999998,53.46419399999985
874,Rybno Pomorskie,19.918425499999785,53.380362999999846
875,Narzym,20.25436149999979,53.18957399999985
876,Choszczno,15.405757499999794,53.16383899999983
877,Bierzwnik,15.65503099999978,53.02540049999985
878,Minsk Mazowiecki,21.55095149999977,52.17592049999985
879,Kobylka,21.206234499999766,52.333048999999846
880,Mosina,16.851924999999795,52.24050949999983
881,Pilawa,21.533853999999792,51.95542849999984
882,Mienia,21.68757799999977,52.149204499999854
883,Debe Wielkie,21.422394999999767,52.19904449999984
884,Belchow,20.032966499999787,52.02531249999984
885,Dabrowice,20.09295549999979,51.93443099999985
886,Garwolin,21.554576999999767,51.89952449999984
887,Kolbiel,21.41506699999977,52.04608249999984
888,Wolow,16.63330099999979,51.333611999999846
889,Szadkowice,20.16766649999977,51.41993199999985
890,Boleslawiec,15.577020499999776,51.26703599999985
891,Raclawice,22.16157249999977,50.50241699999984
892,Susz,19.3289384999998,53.71134899999984
893,Kruszyna,21.178038499999783,51.57084949999984
894,Skarzysko Koscielne,20.91953049999978,51.12229499999984
895,Suchedniow,20.84992149999977,51.04494599999984
896,Rudnik n/Sanem,22.257690999999767,50.43004049999985
897,Mogilno,17.945341999999783,52.65614499999984
898,Trzemeszno,17.819606499999793,52.56999749999983
899,Pobiedziska,17.28220349999978,52.47970899999984
900,Olawa,17.296574499999792,50.931624999999855
901,Losiow,17.546469999999772,50.79127199999985
902,Szepietowo,22.460621999999773,52.84195999999983
903,Wolomin,21.23757999999978,52.34623599999984
904,Mlawa,20.366195499999776,53.10343699999984
905,Ciechanow,20.58346949999978,52.88855099999984
906,Ilowo,20.2949644999998,53.16494499999985
907,Gasocin,20.681929999999767,52.78452649999983
908,Brody,20.74887699999977,52.516339499999845
909,Piasek,18.940088999999773,50.01261049999985
910,Pszczyna,18.95345949999978,49.976105999999845
911,Babiak,18.671795999999773,52.35102849999984
912,Gogolin,18.017941999999778,50.49407049999985
913,Mieszkowice,14.486063999999772,52.78156699999985
914,Kotulin,18.45527449999977,50.459824499999854
915,Ropczyce,21.58177349999977,50.078542999999854
916,Czarna Tarnowska,21.247335499999792,50.061052499999846
917,Slupca,17.85191649999979,52.287622999999854
918,Chrosnica,15.993455499999785,52.28186049999985
919,Ozarow Mazowiecki,20.798370999999776,52.20747449999985
920,Zychlin,19.61598399999977,52.21347099999983
921,Bobrowniki,20.00989149999978,52.05845449999984
922,Miedzyrzec Podlaski,22.790499499999783,51.97633549999984
923,Makow,20.04743449999978,51.94194299999984
924,Lipce Reymontowskie,19.939186999999777,51.90432299999984
925,Strzelin,17.048922999999775,50.823705999999845
926,Henrykow,17.03249199999979,50.645837999999856
927,Ziebice,17.033979999999787,50.60692099999983
928,Laskarzew,21.607590499999787,51.79980199999983
929,Pulawy,22.01410449999977,51.40831299999985
930,Golab,21.919332999999767,51.50065899999984
931,Klementowice,22.11220499999979,51.361582999999854
932,Trawniki,22.996545999999768,51.13449749999984
933,Somonino,18.193685999999783,54.27223649999985
934,Jezierzyce Slupskie,17.12205449999979,54.50409799999983
935,Ozimek,18.20659299999977,50.670052499999855
936,Debska Kuznia,18.10674149999977,50.66483049999985
937,Wasilkow,23.17725999999979,53.19912149999985
938,Ruda,22.52066149999979,53.58847599999984
939,Podlasek,22.535332499999782,53.55561649999984
940,Zlotniki Kujawskie,18.147681999999776,52.902269499999846
941,Halinow,21.35158999999979,52.22273349999983
942,Kramsk,18.48063099999979,52.245194499999855
943,Konin,18.24998199999979,52.23143399999984
944,Kolo,18.6335474999998,52.21001149999984
945,Otwock,21.26557699999978,52.10695549999983
946,Stara Wies,21.35957649999977,52.08368299999984
947,Modlin,20.72217999999978,52.45876399999983
948,Nowy Dwor Mazowiecki,20.724931999999768,52.42508549999985
949,Czempin,16.703830499999782,52.11177499999985
950,Koscian,16.642048999999787,52.07898849999984
951,Sobolew,21.62966949999978,51.76942599999984
952,Brzozowica,22.621115999999773,51.95379449999984
953,Czarna Bialostocka,23.279669499999784,53.30602449999984
